adcode,name,lng,lat
100000,中华人民共和国,116.3683244,39.915085
110000,北京市,116.405285,39.904989
120000,天津市,117.190182,39.125596
130000,河北省,114.502461,38.045474
140000,山西省,112.549248,37.857014
150000,内蒙古自治区,111.670801,40.818311
210000,辽宁省,123.429096,41.796767
220000,吉林省,125.3245,43.886841
230000,黑龙江省,126.642464,45.756967
310000,上海市,121.472644,31.231706
320000,江苏省,118.767413,32.041544
330000,浙江省,120.153576,30.287459
340000,安徽省,117.283042,31.86119
350000,福建省,119.306239,26.075302
360000,江西省,115.892151,28.676493
370000,山东省,117.000923,36.675807
410000,河南省,113.665412,34.757975
420000,湖北省,114.298572,30.584355
430000,湖南省,112.982279,28.19409
440000,广东省,113.280637,23.125178
450000,广西壮族自治区,108.320004,22.82402
460000,海南省,110.33119,20.031971
500000,重庆市,106.504962,29.533155
510000,四川省,104.065735,30.659462
520000,贵州省,106.713478,26.578343
530000,云南省,102.712251,25.040609
540000,西藏自治区,91.132212,29.660361
610000,陕西省,108.948024,34.263161
620000,甘肃省,103.823557,36.058039
630000,青海省,101.778916,36.623178
640000,宁夏回族自治区,106.278179,38.46637
650000,新疆维吾尔自治区,87.617733,43.792818
710000,台湾省,121.509062,25.044332
810000,香港特别行政区,114.173355,22.320048
820000,澳门特别行政区,113.54909,22.198951
110000,北京市,116.405285,39.904989
110100,北京市市辖区,116.405285,39.904989
110101,东城区,116.418757,39.917544
110102,西城区,116.366794,39.915309
110105,朝阳区,116.486409,39.921489
110106,丰台区,116.286968,39.863642
110107,石景山区,116.195445,39.914601
110108,海淀区,116.310316,39.956074
110109,门头沟区,116.105381,39.937183
110111,房山区,116.139157,39.735535
110112,通州区,116.658603,39.902486
110113,顺义区,116.653525,40.128936
110114,昌平区,116.235906,40.218085
110115,大兴区,116.338033,39.728908
110116,怀柔区,116.637122,40.324272
110117,平谷区,117.112335,40.144783
110228,密云区,116.843352,40.377362
110229,延庆区,115.985006,40.465325
110100,北京市市辖区,116.405285,39.904989
110101,东城区,116.418757,39.917544
110102,西城区,116.366794,39.915309
110105,朝阳区,116.486409,39.921489
110106,丰台区,116.286968,39.863642
110107,石景山区,116.195445,39.914601
110108,海淀区,116.310316,39.956074
110109,门头沟区,116.105381,39.937183
110111,房山区,116.139157,39.735535
110112,通州区,116.658603,39.902486
110113,顺义区,116.653525,40.128936
110114,昌平区,116.235906,40.218085
110115,大兴区,116.338033,39.728908
110116,怀柔区,116.637122,40.324272
110117,平谷区,117.112335,40.144783
110228,密云区,116.843352,40.377362
110229,延庆区,115.985006,40.465325
120000,天津市,117.190182,39.125596
120100,天津市市辖区,117.190182,39.125596
120101,和平区,117.195907,39.118327
120102,河东区,117.226568,39.122125
120103,河西区,117.217536,39.101897
120104,南开区,117.164143,39.120474
120105,河北区,117.201569,39.156632
120106,红桥区,117.163301,39.175066
120110,东丽区,117.313967,39.087764
120111,西青区,117.012247,39.139446
120112,津南区,117.382549,38.989577
120113,北辰区,117.13482,39.225555
120114,武清区,117.057959,39.376925
120115,宝坻区,117.308094,39.716965
120116,滨海新区,117.654173,39.032846
120200,天津市郊县,117.824898,39.330613
120225,蓟县,117.407449,40.045342
120100,天津市市辖区,117.190182,39.125596
120101,和平区,117.195907,39.118327
120102,河东区,117.226568,39.122125
120103,河西区,117.217536,39.101897
120104,南开区,117.164143,39.120474
120105,河北区,117.201569,39.156632
120106,红桥区,117.163301,39.175066
120110,东丽区,117.313967,39.087764
120111,西青区,117.012247,39.139446
120112,津南区,117.382549,38.989577
120113,北辰区,117.13482,39.225555
120114,武清区,117.057959,39.376925
120115,宝坻区,117.308094,39.716965
120116,滨海新区,117.654173,39.032846
120200,天津市郊县,117.824898,39.330613
120225,蓟县,117.407449,40.045342
130000,河北省,114.502461,38.045474
130100,石家庄市,114.502461,38.045474
130200,唐山市,118.175393,39.635113
130300,秦皇岛市,119.586579,39.942531
130400,邯郸市,114.490686,36.612273
130500,邢台市,114.508851,37.0682
130600,保定市,115.482331,38.867657
130700,张家口市,114.884091,40.811901
130800,承德市,117.939152,40.976204
130900,沧州市,116.857461,38.310582
131000,廊坊市,116.704441,39.523927
131100,衡水市,115.665993,37.735097
130100,石家庄市,114.502461,38.045474
130102,长安区,114.548151,38.047501
130104,桥西区,114.462931,38.028383
130105,新华区,114.465974,38.067142
130107,井陉矿区,114.058178,38.069748
130108,裕华区,114.533257,38.027696
130109,藁城区,114.849647,38.033767
130110,鹿泉区,114.321023,38.093994
130111,栾城区,114.654281,37.886911
130121,井陉县,114.144488,38.033614
130123,正定县,114.569887,38.147835
130125,行唐县,114.552734,38.437422
130126,灵寿县,114.37946,38.306546
130127,高邑县,114.610699,37.605714
130128,深泽县,115.200207,38.18454
130129,赞皇县,114.387756,37.660199
130130,无极县,114.977845,38.176376
130131,平山县,114.184144,38.259311
130132,元氏县,114.52618,37.762514
130133,赵县,114.775362,37.754341
130181,辛集市,115.217451,37.92904
130183,晋州市,115.044886,38.027478
130184,新乐市,114.68578,38.344768
130200,唐山市,118.175393,39.635113
130202,路南区,118.210821,39.615162
130203,路北区,118.174736,39.628538
130204,古冶区,118.45429,39.715736
130205,开平区,118.264425,39.676171
130207,丰南区,118.110793,39.56303
130208,丰润区,118.155779,39.831363
130209,曹妃甸区,118.446585,39.278277
130223,滦县,118.699547,39.744851
130224,滦南县,118.681552,39.506201
130225,乐亭县,118.905341,39.42813
130227,迁西县,118.305139,40.146238
130229,玉田县,117.753665,39.887323
130281,遵化市,117.965875,40.188616
130283,迁安市,118.701933,40.012108
130300,秦皇岛市,119.586579,39.942531
130302,海港区,119.596224,39.943458
130303,山海关区,119.753591,39.998023
130304,北戴河区,119.486286,39.825121
130321,青龙满族自治县,118.954555,40.406023
130322,昌黎县,119.164541,39.709729
130324,卢龙县,118.881809,39.891639
130400,邯郸市,114.490686,36.612273
130402,邯山区,114.484989,36.603196
130403,丛台区,114.494703,36.611082
130404,复兴区,114.458242,36.615484
130406,峰峰矿区,114.209936,36.420487
130421,邯郸县,114.531083,36.593905
130423,临漳县,114.610703,36.337604
130424,成安县,114.680356,36.443832
130425,大名县,115.152586,36.283316
130426,涉县,113.673297,36.563143
130427,磁县,114.38208,36.367673
130428,肥乡县,114.805154,36.555778
130429,永年县,114.496162,36.776413
130430,邱县,115.168584,36.81325
130431,鸡泽县,114.878517,36.914908
130432,广平县,114.950859,36.483603
130433,馆陶县,115.289057,36.539461
130434,魏县,114.93411,36.354248
130435,曲周县,114.957588,36.773398
130481,武安市,114.194581,36.696115
130500,邢台市,114.508851,37.0682
130502,桥东区,114.507131,37.064125
130503,桥西区,114.473687,37.068009
130521,邢台县,114.561132,37.05073
130522,临城县,114.506873,37.444009
130523,内丘县,114.511523,37.287663
130524,柏乡县,114.693382,37.483596
130525,隆尧县,114.776348,37.350925
130526,任县,114.684469,37.129952
130527,南和县,114.691377,37.003812
130528,宁晋县,114.921027,37.618956
130529,巨鹿县,115.038782,37.21768
130530,新河县,115.247537,37.526216
130531,广宗县,115.142797,37.075548
130532,平乡县,115.029218,37.069404
130533,威县,115.272749,36.983272
130534,清河县,115.668999,37.059991
130535,临西县,115.498684,36.8642
130581,南宫市,115.398102,37.359668
130582,沙河市,114.504902,36.861903
130600,保定市,115.482331,38.867657
130602,竞秀区,115.470659,38.88662
130623,涞水县,115.711985,39.393148
130624,阜平县,114.198801,38.847276
130626,定兴县,115.796895,39.266195
130627,唐县,114.981241,38.748542
130628,高阳县,115.778878,38.690092
130629,容城县,115.866247,39.05282
130630,涞源县,114.692567,39.35755
130631,望都县,115.154009,38.707448
130632,安新县,115.931979,38.929912
130633,易县,115.501146,39.35297
130634,曲阳县,114.704055,38.619992
130635,蠡县,115.583631,38.496429
130636,顺平县,115.132749,38.845127
130637,博野县,115.461798,38.458271
130638,雄县,116.107474,38.990819
130681,涿州市,115.973409,39.485765
130682,定州市,114.991389,38.517602
130683,安国市,115.33141,38.421367
130684,高碑店市,115.882704,39.327689
130700,张家口市,114.884091,40.811901
130702,桥东区,114.885658,40.813875
130703,桥西区,114.882127,40.824385
130705,宣化区,115.0632,40.609368
130706,下花园区,115.281002,40.488645
130721,宣化县,115.03308,40.562211
130722,张北县,114.715951,41.151713
130723,康保县,114.615809,41.850046
130724,沽源县,115.684836,41.667419
130725,尚义县,113.977713,41.080091
130726,蔚县,114.582695,39.837181
130727,阳原县,114.167343,40.113419
130728,怀安县,114.422364,40.671274
130729,万全县,114.736131,40.765136
130730,怀来县,115.520846,40.405405
130731,涿鹿县,115.219246,40.378701
130732,赤城县,115.832708,40.912081
130733,崇礼县,115.281652,40.971302
130800,承德市,117.939152,40.976204
130802,双桥区,117.939152,40.976204
130803,双滦区,117.797485,40.959756
130804,鹰手营子矿区,117.661154,40.546956
130821,承德县,118.172496,40.768637
130822,兴隆县,117.507098,40.418525
130823,平泉县,118.690238,41.00561
130824,滦平县,117.337124,40.936644
130825,隆化县,117.736343,41.316667
130826,丰宁满族自治县,116.65121,41.209903
130827,宽城满族自治县,118.488642,40.607981
130828,围场满族蒙古族自治县,117.764086,41.949404
130900,沧州市,116.857461,38.310582
130902,新华区,116.873049,38.308273
130903,运河区,116.840063,38.307405
130921,沧县,117.007478,38.219856
130922,青县,116.838384,38.569646
130923,东光县,116.542062,37.88655
130924,海兴县,117.496606,38.141582
130925,盐山县,117.229814,38.056141
130926,肃宁县,115.835856,38.427102
130927,南皮县,116.709171,38.042439
130928,吴桥县,116.391512,37.628182
130929,献县,116.123844,38.189661
130930,孟村回族自治县,117.105104,38.057953
130981,泊头市,116.570163,38.073479
130982,任丘市,116.106764,38.706513
130983,黄骅市,117.343803,38.369238
130984,河间市,116.089452,38.44149
131000,廊坊市,116.704441,39.523927
131002,安次区,116.694544,39.502569
131003,广阳区,116.713708,39.521931
131022,固安县,116.299894,39.436468
131023,永清县,116.498089,39.319717
131024,香河县,117.007161,39.757212
131025,大城县,116.640735,38.699215
131026,文安县,116.460107,38.866801
131028,大厂回族自治县,116.986501,39.889266
131081,霸州市,116.392021,39.117331
131082,三河市,117.077018,39.982778
131100,衡水市,115.665993,37.735097
131102,桃城区,115.694945,37.732237
131121,枣强县,115.726499,37.511512
131122,武邑县,115.892415,37.803774
131123,武强县,115.970236,38.03698
131124,饶阳县,115.726577,38.232671
131125,安平县,115.519627,38.233511
131126,故城县,115.966747,37.350981
131127,景县,116.258446,37.686622
131128,阜城县,116.164727,37.869945
131181,冀州市,115.579173,37.542788
131182,深州市,115.554596,38.00347
140000,山西省,112.549248,37.857014
140100,太原市,112.549248,37.857014
140200,大同市,113.295259,40.09031
140300,阳泉市,113.583285,37.861188
140400,长治市,113.113556,36.191112
140500,晋城市,112.851274,35.497553
140600,朔州市,112.433387,39.331261
140700,晋中市,112.736465,37.696495
140800,运城市,111.003957,35.022778
140900,忻州市,112.733538,38.41769
141000,临汾市,111.517973,36.08415
141100,吕梁市,111.134335,37.524366
140100,太原市,112.549248,37.857014
140105,小店区,112.564273,37.817974
140106,迎泽区,112.558851,37.855804
140107,杏花岭区,112.560743,37.879291
140108,尖草坪区,112.487122,37.939893
140109,万柏林区,112.522258,37.862653
140110,晋源区,112.477849,37.715619
140121,清徐县,112.357961,37.60729
140122,阳曲县,112.673818,38.058797
140123,娄烦县,111.793798,38.066035
140181,古交市,112.174353,37.908534
140200,大同市,113.295259,40.09031
140202,城区,113.301438,40.090511
140203,矿区,113.168656,40.03626
140211,南郊区,113.16892,40.01802
140212,新荣区,113.141044,40.258269
140221,阳高县,113.749871,40.364927
140222,天镇县,114.09112,40.421336
140223,广灵县,114.279252,39.763051
140224,灵丘县,114.23576,39.438867
140225,浑源县,113.698091,39.699099
140226,左云县,112.70641,40.012873
140227,大同县,113.611306,40.039345
140300,阳泉市,113.583285,37.861188
140302,城区,113.586513,37.860938
140303,矿区,113.559066,37.870085
140311,郊区,113.58664,37.94096
140321,平定县,113.631049,37.800289
140322,盂县,113.41223,38.086131
140400,长治市,113.113556,36.191112
140402,城区,113.114107,36.187896
140411,郊区,113.101211,36.218388
140421,长治县,113.056679,36.052438
140423,襄垣县,113.050094,36.532854
140424,屯留县,112.892741,36.314072
140425,平顺县,113.438791,36.200202
140426,黎城县,113.387366,36.502971
140427,壶关县,113.206138,36.110938
140428,长子县,112.884656,36.119484
140429,武乡县,112.8653,36.834315
140430,沁县,112.70138,36.757123
140431,沁源县,112.340878,36.500777
140481,潞城市,113.223245,36.332233
140500,晋城市,112.851274,35.497553
140502,城区,112.853106,35.496641
140521,沁水县,112.187213,35.689472
140522,阳城县,112.422014,35.482177
140524,陵川县,113.278877,35.775614
140525,泽州县,112.899137,35.617221
140581,高平市,112.930691,35.791355
140600,朔州市,112.433387,39.331261
140602,朔城区,112.428676,39.324525
140603,平鲁区,112.295227,39.515603
140621,山阴县,112.816396,39.52677
140622,应县,113.187505,39.559187
140623,右玉县,112.465588,39.988812
140624,怀仁县,113.100512,39.82079
140700,晋中市,112.736465,37.696495
140702,榆次区,112.740056,37.6976
140721,榆社县,112.973521,37.069019
140722,左权县,113.377834,37.079672
140723,和顺县,113.572919,37.327027
140724,昔阳县,113.706166,37.60437
140725,寿阳县,113.177708,37.891136
140726,太谷县,112.554103,37.424595
140727,祁县,112.330532,37.358739
140728,平遥县,112.174059,37.195474
140729,灵石县,111.772759,36.847469
140781,介休市,111.913857,37.027616
140800,运城市,111.003957,35.022778
140802,盐湖区,111.000627,35.025643
140821,临猗县,110.77493,35.141883
140822,万荣县,110.843561,35.417042
140823,闻喜县,111.220306,35.353839
140824,稷山县,110.978996,35.600412
140825,新绛县,111.225205,35.613697
140826,绛县,111.576182,35.49045
140827,垣曲县,111.67099,35.298293
140828,夏县,111.223174,35.140441
140829,平陆县,111.212377,34.837256
140830,芮城县,110.69114,34.694769
140881,永济市,110.447984,34.865125
140882,河津市,110.710268,35.59715
140900,忻州市,112.733538,38.41769
140902,忻府区,112.734112,38.417743
140921,定襄县,112.963231,38.484948
140922,五台县,113.259012,38.725711
140923,代县,112.962519,39.065138
140924,繁峙县,113.267707,39.188104
140925,宁武县,112.307936,39.001718
140926,静乐县,111.940231,38.355947
140927,神池县,112.200438,39.088467
140928,五寨县,111.841015,38.912761
140929,岢岚县,111.56981,38.705625
140930,河曲县,111.146609,39.381895
140931,保德县,111.085688,39.022576
140932,偏关县,111.500477,39.442153
140981,原平市,112.713132,38.729186
141000,临汾市,111.517973,36.08415
141002,尧都区,111.522945,36.080366
141021,曲沃县,111.475529,35.641387
141022,翼城县,111.713508,35.738621
141023,襄汾县,111.442932,35.876139
141024,洪洞县,111.673692,36.255742
141025,古县,111.920207,36.26855
141026,安泽县,112.251372,36.146032
141027,浮山县,111.850039,35.971359
141028,吉县,110.682853,36.099355
141029,乡宁县,110.857365,35.975402
141030,大宁县,110.751283,36.46383
141031,隰县,110.935809,36.692675
141032,永和县,110.631276,36.760614
141033,蒲县,111.09733,36.411682
141034,汾西县,111.563021,36.653368
141081,侯马市,111.371272,35.620302
141082,霍州市,111.723103,36.57202
141100,吕梁市,111.134335,37.524366
141102,离石区,111.134462,37.524037
141121,文水县,112.032595,37.436314
141122,交城县,112.159154,37.555155
141123,兴县,111.124816,38.464136
141124,临县,110.995963,37.960806
141125,柳林县,110.89613,37.431664
141126,石楼县,110.837119,36.999426
141127,岚县,111.671555,38.278654
141128,方山县,111.238885,37.892632
141129,中阳县,111.193319,37.342054
141130,交口县,111.183188,36.983068
141181,孝义市,111.781568,37.144474
141182,汾阳市,111.785273,37.267742
150000,内蒙古自治区,111.670801,40.818311
150100,呼和浩特市,111.670801,40.818311
150200,包头市,109.840405,40.658168
150300,乌海市,106.825563,39.673734
150400,赤峰市,118.956806,42.275317
150500,通辽市,122.263119,43.617429
150600,鄂尔多斯市,109.99029,39.817179
150700,呼伦贝尔市,119.758168,49.215333
150800,巴彦淖尔市,107.416959,40.757402
150900,乌兰察布市,113.114543,41.034126
152200,兴安盟,122.070317,46.076268
152500,锡林郭勒盟,116.090996,43.944018
152900,阿拉善盟,105.706422,38.844814
150100,呼和浩特市,111.670801,40.818311
150102,新城区,111.685964,40.826225
150103,回民区,111.662162,40.815149
150104,玉泉区,111.66543,40.799421
150105,赛罕区,111.698463,40.807834
150121,土默特左旗,111.133615,40.720416
150122,托克托县,111.197317,40.276729
150123,和林格尔县,111.824143,40.380288
150124,清水河县,111.67222,39.912479
150125,武川县,111.456563,41.094483
150200,包头市,109.840405,40.658168
150202,东河区,110.026895,40.587056
150203,昆都仑区,109.822932,40.661345
150204,青山区,109.880049,40.668558
150205,石拐区,110.272565,40.672094
150206,白云鄂博矿区,109.97016,41.769246
150207,九原区,109.968122,40.600581
150221,土默特右旗,110.526766,40.566434
150222,固阳县,110.063421,41.030004
150223,达尔罕茂明安联合旗,110.438452,41.702836
150300,乌海市,106.825563,39.673734
150302,海勃湾区,106.817762,39.673527
150303,海南区,106.884789,39.44153
150304,乌达区,106.722711,39.502288
150400,赤峰市,118.956806,42.275317
150402,红山区,118.961087,42.269732
150403,元宝山区,119.289877,42.041168
150404,松山区,118.938958,42.281046
150421,阿鲁科尔沁旗,120.094969,43.87877
150422,巴林左旗,119.391737,43.980715
150423,巴林右旗,118.678347,43.528963
150424,林西县,118.05775,43.605326
150425,克什克腾旗,117.542465,43.256233
150426,翁牛特旗,119.022619,42.937128
150428,喀喇沁旗,118.708572,41.92778
150429,宁城县,119.339242,41.598692
150430,敖汉旗,119.906486,42.287012
150500,通辽市,122.263119,43.617429
150502,科尔沁区,122.264042,43.617422
150521,科尔沁左翼中旗,123.313873,44.127166
150522,科尔沁左翼后旗,122.355155,42.954564
150523,开鲁县,121.308797,43.602432
150524,库伦旗,121.774886,42.734692
150525,奈曼旗,120.662543,42.84685
150526,扎鲁特旗,120.905275,44.555294
150581,霍林郭勒市,119.657862,45.532361
150600,鄂尔多斯市,109.99029,39.817179
150602,东胜区,109.98945,39.81788
150621,达拉特旗,110.040281,40.404076
150622,准格尔旗,111.238332,39.865221
150623,鄂托克前旗,107.48172,38.183257
150624,鄂托克旗,107.982604,39.095752
150625,杭锦旗,108.736324,39.831789
150626,乌审旗,108.842454,38.596611
150627,伊金霍洛旗,109.787402,39.604312
150700,呼伦贝尔市,119.758168,49.215333
150702,海拉尔区,119.764923,49.213889
150703,扎赉诺尔区,117.716373,49.456567
150721,阿荣旗,123.464615,48.130503
150722,莫力达瓦达斡尔族自治旗,124.507401,48.478385
150723,鄂伦春自治旗,123.725684,50.590177
150724,鄂温克族自治旗,119.754041,49.143293
150725,陈巴尔虎旗,119.437609,49.328422
150726,新巴尔虎左旗,118.267454,48.216571
150727,新巴尔虎右旗,116.825991,48.669134
150781,满洲里市,117.455561,49.590788
150782,牙克石市,120.729005,49.287024
150783,扎兰屯市,122.744401,48.007412
150784,额尔古纳市,120.178636,50.2439
150785,根河市,121.532724,50.780454
150800,巴彦淖尔市,107.416959,40.757402
150802,临河区,107.417018,40.757092
150821,五原县,108.270658,41.097639
150822,磴口县,107.006056,40.330479
150823,乌拉特前旗,108.656816,40.725209
150824,乌拉特中旗,108.515255,41.57254
150825,乌拉特后旗,107.074941,41.084307
150826,杭锦后旗,107.147682,40.888797
150900,乌兰察布市,113.114543,41.034126
150902,集宁区,113.116453,41.034134
150921,卓资县,112.577702,40.89576
150922,化德县,114.01008,41.899335
150923,商都县,113.560643,41.560163
150924,兴和县,113.834009,40.872437
150925,凉城县,112.500911,40.531627
150926,察哈尔右翼前旗,113.211958,40.786859
150927,察哈尔右翼中旗,112.633563,41.274212
150928,察哈尔右翼后旗,113.1906,41.447213
150929,四子王旗,111.70123,41.528114
150981,丰镇市,113.163462,40.437534
152200,兴安盟,122.070317,46.076268
152201,乌兰浩特市,122.068975,46.077238
152202,阿尔山市,119.943656,47.177
152221,科尔沁右翼前旗,121.957544,46.076497
152222,科尔沁右翼中旗,121.472818,45.059645
152223,扎赉特旗,122.909332,46.725136
152224,突泉县,121.564856,45.380986
152500,锡林郭勒盟,116.090996,43.944018
152501,二连浩特市,111.97981,43.652895
152502,锡林浩特市,116.091903,43.944301
152522,阿巴嘎旗,114.970618,44.022728
152523,苏尼特左旗,113.653412,43.854108
152524,苏尼特右旗,112.65539,42.746662
152525,东乌珠穆沁旗,116.980022,45.510307
152526,西乌珠穆沁旗,117.615249,44.586147
152527,太仆寺旗,115.28728,41.895199
152528,镶黄旗,113.843869,42.239229
152529,正镶白旗,115.031423,42.286807
152530,正蓝旗,116.003311,42.245895
152531,多伦县,116.477288,42.197962
152900,阿拉善盟,105.706422,38.844814
152921,阿拉善左旗,105.70192,38.847241
152922,阿拉善右旗,101.671984,39.21159
152923,额济纳旗,101.06944,41.958813
210000,辽宁省,123.429096,41.796767
210100,沈阳市,123.429096,41.796767
210200,大连市,121.618622,38.91459
210300,鞍山市,122.995632,41.110626
210400,抚顺市,123.921109,41.875956
210500,本溪市,123.770519,41.297909
210600,丹东市,124.383044,40.124296
210700,锦州市,121.135742,41.119269
210800,营口市,122.235151,40.667432
210900,阜新市,121.648962,42.011796
211000,辽阳市,123.18152,41.269402
211100,盘锦市,122.06957,41.124484
211200,铁岭市,123.844279,42.290585
211300,朝阳市,120.451176,41.576758
211400,葫芦岛市,120.856394,40.755572
210100,沈阳市,123.429096,41.796767
210102,和平区,123.406664,41.788074
210103,沈河区,123.445696,41.795591
210104,大东区,123.469956,41.808503
210105,皇姑区,123.405677,41.822336
210106,铁西区,123.350664,41.787808
210111,苏家屯区,123.341604,41.665904
210112,浑南区,123.458981,41.741946
210113,沈北新区,123.521471,42.052312
210114,于洪区,123.310829,41.795833
210122,辽中县,122.731269,41.512725
210123,康平县,123.352703,42.741533
210124,法库县,123.416722,42.507045
210181,新民市,122.828868,41.996508
210200,大连市,121.618622,38.91459
210202,中山区,121.64376,38.921553
210203,西岗区,121.616112,38.914266
210204,沙河口区,121.593702,38.912859
210211,甘井子区,121.582614,38.975148
210212,旅顺口区,121.26713,38.812043
210213,金州区,121.789413,39.052745
210224,长海县,122.587824,39.272399
210281,瓦房店市,122.002656,39.63065
210282,普兰店市,121.9705,39.401555
210283,庄河市,122.970612,39.69829
210300,鞍山市,122.995632,41.110626
210302,铁东区,122.994475,41.110344
210303,铁西区,122.971834,41.11069
210304,立山区,123.024806,41.150622
210311,千山区,122.949298,41.068909
210321,台安县,122.429736,41.38686
210323,岫岩满族自治县,123.28833,40.281509
210381,海城市,122.752199,40.852533
210400,抚顺市,123.921109,41.875956
210402,新抚区,123.902858,41.86082
210403,东洲区,124.047219,41.866829
210404,望花区,123.801509,41.851803
210411,顺城区,123.917165,41.881132
210421,抚顺县,124.097979,41.922644
210422,新宾满族自治县,125.037547,41.732456
210423,清原满族自治县,124.927192,42.10135
210500,本溪市,123.770519,41.297909
210502,平山区,123.761231,41.291581
210503,溪湖区,123.765226,41.330056
210504,明山区,123.763288,41.302429
210505,南芬区,123.748381,41.104093
210521,本溪满族自治县,124.126156,41.300344
210522,桓仁满族自治县,125.359195,41.268997
210600,丹东市,124.383044,40.124296
210602,元宝区,124.397814,40.136483
210603,振兴区,124.361153,40.102801
210604,振安区,124.427709,40.158557
210624,宽甸满族自治县,124.784867,40.730412
210681,东港市,124.149437,39.883467
210682,凤城市,124.071067,40.457567
210700,锦州市,121.135742,41.119269
210702,古塔区,121.130085,41.115719
210703,凌河区,121.151304,41.114662
210711,太和区,121.107297,41.105378
210726,黑山县,122.117915,41.691804
210727,义县,121.242831,41.537224
210781,凌海市,121.364236,41.171738
210782,北镇市,121.795962,41.598764
210800,营口市,122.235151,40.667432
210802,站前区,122.253235,40.669949
210803,西市区,122.210067,40.663086
210804,鲅鱼圈区,122.127242,40.263646
210811,老边区,122.382584,40.682723
210881,盖州市,122.355534,40.405234
210882,大石桥市,122.505894,40.633973
210900,阜新市,121.648962,42.011796
210902,海州区,121.657639,42.011162
210903,新邱区,121.790541,42.086603
210904,太平区,121.677575,42.011145
210905,清河门区,121.42018,41.780477
210911,细河区,121.654791,42.019218
210921,阜新蒙古族自治县,121.743125,42.058607
210922,彰武县,122.537444,42.384823
211000,辽阳市,123.18152,41.269402
211002,白塔区,123.172611,41.26745
211003,文圣区,123.188227,41.266765
211004,宏伟区,123.200461,41.205747
211005,弓长岭区,123.431633,41.157831
211011,太子河区,123.185336,41.251682
211021,辽阳县,123.079674,41.216479
211081,灯塔市,123.325864,41.427836
211100,盘锦市,122.06957,41.124484
211102,双台子区,122.055733,41.190365
211103,兴隆台区,122.071624,41.122423
211121,大洼县,122.071708,40.994428
211122,盘山县,121.98528,41.240701
211200,铁岭市,123.844279,42.290585
211202,银州区,123.844877,42.292278
211204,清河区,124.14896,42.542978
211221,铁岭县,123.725669,42.223316
211223,西丰县,124.72332,42.738091
211224,昌图县,124.11017,42.784441
211281,调兵山市,123.545366,42.450734
211282,开原市,124.045551,42.542141
211300,朝阳市,120.451176,41.576758
211302,双塔区,120.44877,41.579389
211303,龙城区,120.413376,41.576749
211321,朝阳县,120.404217,41.526342
211322,建平县,119.642363,41.402576
211324,喀喇沁左翼蒙古族自治县,119.744883,41.125428
211381,北票市,120.766951,41.803286
211382,凌源市,119.404789,41.243086
211400,葫芦岛市,120.856394,40.755572
211402,连山区,120.85937,40.755143
211403,龙港区,120.838569,40.709991
211404,南票区,120.752314,41.098813
211421,绥中县,120.342112,40.328407
211422,建昌县,119.807776,40.812871
211481,兴城市,120.729365,40.619413
220000,吉林省,125.3245,43.886841
220100,长春市,125.3245,43.886841
220200,吉林市,126.55302,43.843577
220300,四平市,124.370785,43.170344
220400,辽源市,125.145349,42.902692
220500,通化市,125.936501,41.721177
220600,白山市,126.427839,41.942505
220700,松原市,124.823608,45.118243
220800,白城市,122.841114,45.619026
222400,延边朝鲜族自治州,129.513228,42.904823
220100,长春市,125.3245,43.886841
220102,南关区,125.337237,43.890235
220103,宽城区,125.342828,43.903823
220104,朝阳区,125.318042,43.86491
220105,二道区,125.384727,43.870824
220106,绿园区,125.272467,43.892177
220112,双阳区,125.659018,43.525168
220113,九台区,125.844682,44.157155
220122,农安县,125.175287,44.431258
220182,榆树市,126.550107,44.827642
220183,德惠市,125.703327,44.533909
220200,吉林市,126.55302,43.843577
220202,昌邑区,126.570766,43.851118
220203,龙潭区,126.561429,43.909755
220204,船营区,126.55239,43.843804
220211,丰满区,126.560759,43.816594
220221,永吉县,126.501622,43.667416
220281,蛟河市,127.342739,43.720579
220282,桦甸市,126.745445,42.972093
220283,舒兰市,126.947813,44.410906
220284,磐石市,126.059929,42.942476
220300,四平市,124.370785,43.170344
220302,铁西区,124.360894,43.176263
220303,铁东区,124.388464,43.16726
220322,梨树县,124.335802,43.30831
220323,伊通满族自治县,125.303124,43.345464
220381,公主岭市,124.817588,43.509474
220382,双辽市,123.505283,43.518275
220400,辽源市,125.145349,42.902692
220402,龙山区,125.145164,42.902702
220403,西安区,125.151424,42.920415
220421,东丰县,125.529623,42.675228
220422,东辽县,124.991995,42.927724
220500,通化市,125.936501,41.721177
220502,东昌区,125.936716,41.721233
220503,二道江区,126.045987,41.777564
220521,通化县,125.753121,41.677918
220523,辉南县,126.042821,42.683459
220524,柳河县,125.740536,42.281484
220581,梅河口市,125.687336,42.530002
220582,集安市,126.186204,41.126276
220600,白山市,126.427839,41.942505
220602,浑江区,126.428035,41.943065
220605,江源区,126.584229,42.048109
220621,抚松县,127.273796,42.332643
220622,靖宇县,126.808386,42.389689
220623,长白朝鲜族自治县,128.203384,41.419361
220681,临江市,126.919296,41.810689
220700,松原市,124.823608,45.118243
220702,宁江区,124.827851,45.176498
220721,前郭尔罗斯蒙古族自治县,124.826808,45.116288
220722,长岭县,123.985184,44.276579
220723,乾安县,124.024361,45.006846
220781,扶余市,126.042758,44.986199
220800,白城市,122.841114,45.619026
220802,洮北区,122.842499,45.619253
220821,镇赉县,123.202246,45.846089
220822,通榆县,123.088543,44.80915
220881,洮南市,122.783779,45.339113
220882,大安市,124.291512,45.507648
222400,延边朝鲜族自治州,129.513228,42.904823
222401,延吉市,129.51579,42.906964
222402,图们市,129.846701,42.966621
222403,敦化市,128.22986,43.366921
222404,珲春市,130.365787,42.871057
222405,龙井市,129.425747,42.771029
222406,和龙市,129.008748,42.547004
222424,汪清县,129.766161,43.315426
222426,安图县,128.901865,43.110994
230000,黑龙江省,126.642464,45.756967
230100,哈尔滨市,126.642464,45.756967
230200,齐齐哈尔市,123.95792,47.342081
230300,鸡西市,130.975966,45.300046
230400,鹤岗市,130.277487,47.332085
230500,双鸭山市,131.157304,46.643442
230600,大庆市,125.11272,46.590734
230700,伊春市,128.899396,47.724775
230800,佳木斯市,130.361634,46.809606
230900,七台河市,131.015584,45.771266
231000,牡丹江市,129.618602,44.582962
231100,黑河市,127.499023,50.249585
231200,绥化市,126.99293,46.637393
232700,大兴安岭地区,124.711526,52.335262
230100,哈尔滨市,126.642464,45.756967
230102,道里区,126.612532,45.762035
230103,南岗区,126.652098,45.755971
230104,道外区,126.648838,45.78454
230108,平房区,126.629257,45.605567
230109,松北区,126.563066,45.814656
230110,香坊区,126.667049,45.713067
230111,呼兰区,126.603302,45.98423
230112,阿城区,126.972726,45.538372
230113,双城区,126.308784,45.377942
230123,依兰县,129.565594,46.315105
230124,方正县,128.836131,45.839536
230125,宾县,127.48594,45.759369
230126,巴彦县,127.403602,46.081889
230127,木兰县,128.042675,45.949826
230128,通河县,128.747786,45.977618
230129,延寿县,128.331886,45.455648
230183,尚志市,127.968539,45.214953
230184,五常市,127.15759,44.919418
230200,齐齐哈尔市,123.95792,47.342081
230202,龙沙区,123.957338,47.341736
230203,建华区,123.955888,47.354494
230204,铁锋区,123.973555,47.339499
230205,昂昂溪区,123.813181,47.156867
230206,富拉尔基区,123.638873,47.20697
230207,碾子山区,122.887972,47.51401
230208,梅里斯达斡尔族区,123.754599,47.311113
230221,龙江县,123.187225,47.336388
230223,依安县,125.307561,47.890098
230224,泰来县,123.41953,46.39233
230225,甘南县,123.506034,47.917838
230227,富裕县,124.469106,47.797172
230229,克山县,125.874355,48.034342
230230,克东县,126.249094,48.03732
230231,拜泉县,126.091911,47.607363
230281,讷河市,124.882172,48.481133
230300,鸡西市,130.975966,45.300046
230302,鸡冠区,130.974374,45.30034
230303,恒山区,130.910636,45.213242
230304,滴道区,130.846823,45.348812
230305,梨树区,130.697781,45.092195
230306,城子河区,131.010501,45.338248
230307,麻山区,130.481126,45.209607
230321,鸡东县,131.148907,45.250892
230381,虎林市,132.973881,45.767985
230382,密山市,131.874137,45.54725
230400,鹤岗市,130.277487,47.332085
230402,向阳区,130.292478,47.345372
230403,工农区,130.276652,47.331678
230404,南山区,130.275533,47.31324
230405,兴安区,130.236169,47.252911
230406,东山区,130.31714,47.337385
230407,兴山区,130.30534,47.35997
230421,萝北县,130.829087,47.577577
230422,绥滨县,131.860526,47.289892
230500,双鸭山市,131.157304,46.643442
230502,尖山区,131.15896,46.642961
230503,岭东区,131.163675,46.591076
230505,四方台区,131.333181,46.594347
230506,宝山区,131.404294,46.573366
230521,集贤县,131.13933,46.72898
230522,友谊县,131.810622,46.775159
230523,宝清县,132.206415,46.328781
230524,饶河县,134.021162,46.801288
230600,大庆市,125.11272,46.590734
230602,萨尔图区,125.114643,46.596356
230603,龙凤区,125.145794,46.573948
230604,让胡路区,124.868341,46.653254
230605,红岗区,124.889528,46.403049
230606,大同区,124.818509,46.034304
230621,肇州县,125.273254,45.708685
230622,肇源县,125.081974,45.518832
230623,林甸县,124.877742,47.186411
230624,杜尔伯特蒙古族自治县,124.446259,46.865973
230700,伊春市,128.899396,47.724775
230702,伊春区,128.899284,47.726851
230703,南岔区,129.28246,47.137314
230704,友好区,128.838961,47.854303
230705,西林区,129.311441,47.479437
230706,翠峦区,128.671746,47.726228
230707,新青区,129.52995,48.288292
230708,美溪区,129.133411,47.636102
230709,金山屯区,129.435944,47.41295
230710,五营区,129.245028,48.108204
230711,乌马河区,128.802941,47.726961
230712,汤旺河区,129.57224,48.453651
230713,带岭区,129.021151,47.027532
230714,乌伊岭区,129.437847,48.59112
230715,红星区,129.388796,48.238368
230716,上甘岭区,129.02508,47.974859
230722,嘉荫县,130.397684,48.891378
230781,铁力市,128.030561,46.985772
230800,佳木斯市,130.361634,46.809606
230803,向阳区,130.361786,46.809645
230804,前进区,130.377684,46.812345
230805,东风区,130.403297,46.822476
230811,郊区,130.351588,46.80712
230822,桦南县,130.570112,46.240118
230826,桦川县,130.723713,47.023039
230828,汤原县,129.904463,46.730048
230833,抚远县,134.294501,48.364707
230881,同江市,132.510119,47.651131
230882,富锦市,132.037951,47.250747
230900,七台河市,131.015584,45.771266
230902,新兴区,130.889482,45.794258
230903,桃山区,131.015848,45.771217
230904,茄子河区,131.071561,45.776587
230921,勃利县,130.575025,45.751573
231000,牡丹江市,129.618602,44.582962
231002,东安区,129.623292,44.582399
231003,阳明区,129.634645,44.596328
231004,爱民区,129.601232,44.595443
231005,西安区,129.61311,44.581032
231024,东宁县,131.125296,44.063578
231025,林口县,130.268402,45.286645
231081,绥芬河市,131.164856,44.396864
231083,海林市,129.387902,44.574149
231084,宁安市,129.470019,44.346836
231085,穆棱市,130.527085,44.91967
231100,黑河市,127.499023,50.249585
231102,爱辉区,127.497639,50.249027
231121,嫩江县,125.229904,49.177461
231123,逊克县,128.476152,49.582974
231124,孙吴县,127.327315,49.423941
231181,北安市,126.508737,48.245437
231182,五大连池市,126.197694,48.512688
231200,绥化市,126.99293,46.637393
231202,北林区,126.990665,46.634912
231221,望奎县,126.484191,46.83352
231222,兰西县,126.289315,46.259037
231223,青冈县,126.112268,46.686596
231224,庆安县,127.510024,46.879203
231225,明水县,125.907544,47.183527
231226,绥棱县,127.111121,47.247195
231281,安达市,125.329926,46.410614
231282,肇东市,125.991402,46.069471
231283,海伦市,126.969383,47.460428
232700,大兴安岭地区,124.711526,52.335262
232701,加格达奇区,124.126716,50.424654
232721,呼玛县,126.662105,51.726998
232722,塔河县,124.710516,52.335229
232723,漠河县,122.536256,52.972074
310000,上海市,121.472644,31.231706
310100,上海市市辖区,121.472644,31.231706
310101,黄浦区,121.490317,31.222771
310104,徐汇区,121.43752,31.179973
310105,长宁区,121.4222,31.218123
310106,静安区,121.448224,31.229003
310107,普陀区,121.392499,31.241701
310108,闸北区,121.465689,31.25318
310109,虹口区,121.491832,31.26097
310110,杨浦区,121.522797,31.270755
310112,闵行区,121.375972,31.111658
310113,宝山区,121.489934,31.398896
310114,嘉定区,121.250333,31.383524
310115,浦东新区,121.567706,31.245944
310116,金山区,121.330736,30.724697
310117,松江区,121.223543,31.03047
310118,青浦区,121.113021,31.151209
310120,奉贤区,121.458472,30.912345
310200,上海市郊县,121.397417,31.623587
310230,崇明县,121.397516,31.626946
310100,上海市市辖区,121.472644,31.231706
310101,黄浦区,121.490317,31.222771
310104,徐汇区,121.43752,31.179973
310105,长宁区,121.4222,31.218123
310106,静安区,121.448224,31.229003
310107,普陀区,121.392499,31.241701
310108,闸北区,121.465689,31.25318
310109,虹口区,121.491832,31.26097
310110,杨浦区,121.522797,31.270755
310112,闵行区,121.375972,31.111658
310113,宝山区,121.489934,31.398896
310114,嘉定区,121.250333,31.383524
310115,浦东新区,121.567706,31.245944
310116,金山区,121.330736,30.724697
310117,松江区,121.223543,31.03047
310118,青浦区,121.113021,31.151209
310120,奉贤区,121.458472,30.912345
310200,上海市郊县,121.397417,31.623587
310230,崇明县,121.397516,31.626946
320000,江苏省,118.767413,32.041544
320100,南京市,118.767413,32.041544
320200,无锡市,120.301663,31.574729
320300,徐州市,117.184811,34.261792
320400,常州市,119.946973,31.772752
320500,苏州市,120.619585,31.299379
320600,南通市,120.864608,32.016212
320700,连云港市,119.178821,34.600018
320800,淮安市,119.021265,33.597506
320900,盐城市,120.139998,33.377631
321000,扬州市,119.421003,32.393159
321100,镇江市,119.452753,32.204402
321200,泰州市,119.915176,32.484882
321300,宿迁市,118.275162,33.963008
320100,南京市,118.767413,32.041544
320102,玄武区,118.792199,32.050678
320104,秦淮区,118.786088,32.033818
320105,建邺区,118.732688,32.004538
320106,鼓楼区,118.769739,32.066966
320111,浦口区,118.625307,32.05839
320113,栖霞区,118.808702,32.102147
320114,雨花台区,118.77207,31.995946
320115,江宁区,118.850621,31.953418
320116,六合区,118.85065,32.340655
320117,溧水区,119.028732,31.653061
320118,高淳区,118.87589,31.327132
320200,无锡市,120.301663,31.574729
320202,崇安区,120.301627,31.574705
320203,南长区,120.308448,31.563759
320204,北塘区,120.295159,31.586575
320205,锡山区,120.357298,31.585559
320206,惠山区,120.303543,31.681019
320211,滨湖区,120.266053,31.550228
320281,江阴市,120.275891,31.910984
320282,宜兴市,119.820538,31.364384
320300,徐州市,117.184811,34.261792
320302,鼓楼区,117.192941,34.269397
320303,云龙区,117.194589,34.254805
320305,贾汪区,117.450212,34.441642
320311,泉山区,117.182225,34.262249
320312,铜山区,117.183894,34.19288
320321,丰县,116.592888,34.696946
320322,沛县,116.937182,34.729044
320324,睢宁县,117.95066,33.899222
320381,新沂市,118.345828,34.368779
320382,邳州市,117.963923,34.314708
320400,常州市,119.946973,31.772752
320402,天宁区,119.963783,31.779632
320404,钟楼区,119.948388,31.78096
320411,新北区,119.974654,31.824664
320412,武进区,119.958773,31.718566
320481,溧阳市,119.487816,31.427081
320500,苏州市,120.619585,31.299379
320505,虎丘区,120.566833,31.294845
320506,吴中区,120.624621,31.270839
320507,相城区,120.618956,31.396684
320508,姑苏区,120.622249,31.311414
320509,吴江区,120.641601,31.160404
320581,常熟市,120.74852,31.658156
320582,张家港市,120.543441,31.865553
320583,昆山市,120.958137,31.381925
320585,太仓市,121.112275,31.452568
320600,南通市,120.864608,32.016212
320602,崇川区,120.86635,32.015278
320611,港闸区,120.8339,32.040299
320612,通州区,121.073171,32.084287
320621,海安县,120.465995,32.540289
320623,如东县,121.186088,32.311832
320681,启东市,121.659724,31.810158
320682,如皋市,120.566324,32.391591
320684,海门市,121.176609,31.893528
320700,连云港市,119.178821,34.600018
320703,连云区,119.366487,34.739529
320706,海州区,119.179793,34.601584
320707,赣榆区,119.128774,34.839154
320722,东海县,118.766489,34.522859
320723,灌云县,119.255741,34.298436
320724,灌南县,119.352331,34.092553
320800,淮安市,119.021265,33.597506
320802,清河区,119.019454,33.603234
320803,淮安区,119.14634,33.507499
320804,淮阴区,119.020817,33.622452
320811,清浦区,119.030498,33.58074
320826,涟水县,119.266078,33.771308
320829,洪泽县,118.867875,33.294975
320830,盱眙县,118.493823,33.00439
320831,金湖县,119.016936,33.018162
320900,盐城市,120.139998,33.377631
320902,亭湖区,120.136078,33.383912
320903,盐都区,120.139753,33.341288
320921,响水县,119.579573,34.19996
320922,滨海县,119.828434,33.989888
320923,阜宁县,119.805338,33.78573
320924,射阳县,120.257444,33.773779
320925,建湖县,119.793105,33.472621
320981,东台市,120.314101,32.853174
321000,扬州市,119.421003,32.393159
321002,广陵区,119.442267,32.392154
321003,邗江区,119.397777,32.377899
321012,江都区,119.567481,32.426564
321023,宝应县,119.321284,33.23694
321081,仪征市,119.182443,32.271965
321084,高邮市,119.443842,32.785164
321100,镇江市,119.452753,32.204402
321102,京口区,119.454571,32.206191
321111,润州区,119.414877,32.213501
321112,丹徒区,119.433883,32.128972
321181,丹阳市,119.581911,31.991459
321182,扬中市,119.828054,32.237266
321183,句容市,119.167135,31.947355
321200,泰州市,119.915176,32.484882
321202,海陵区,119.920187,32.488406
321203,高港区,119.88166,32.315701
321204,姜堰区,120.148208,32.508483
321281,兴化市,119.840162,32.938065
321282,靖江市,120.26825,32.018168
321283,泰兴市,120.020228,32.168784
321300,宿迁市,118.275162,33.963008
321302,宿城区,118.278984,33.937726
321311,宿豫区,118.330012,33.941071
321322,沭阳县,118.775889,34.129097
321323,泗阳县,118.681284,33.711433
321324,泗洪县,118.211824,33.456538
330000,浙江省,120.153576,30.287459
330100,杭州市,120.153576,30.287459
330200,宁波市,121.549792,29.868388
330300,温州市,120.672111,28.000575
330400,嘉兴市,120.750865,30.762653
330500,湖州市,120.102398,30.867198
330600,绍兴市,120.582112,29.997117
330700,金华市,119.649506,29.089524
330800,衢州市,118.87263,28.941708
330900,舟山市,122.106863,30.016028
331000,台州市,121.428599,28.661378
331100,丽水市,119.921786,28.451993
330100,杭州市,120.153576,30.287459
330102,上城区,120.171465,30.250236
330103,下城区,120.172763,30.276271
330104,江干区,120.202633,30.266603
330105,拱墅区,120.150053,30.314697
330106,西湖区,120.147376,30.272934
330108,滨江区,120.21062,30.206615
330109,萧山区,120.27069,30.162932
330110,余杭区,120.301737,30.421187
330111,富阳区,119.949869,30.049871
330122,桐庐县,119.685045,29.797437
330127,淳安县,119.044276,29.604177
330182,建德市,119.279089,29.472284
330185,临安市,119.715101,30.231153
330200,宁波市,121.549792,29.868388
330203,海曙区,121.539698,29.874452
330204,江东区,121.572991,29.866542
330205,江北区,121.559282,29.888361
330206,北仑区,121.831303,29.90944
330211,镇海区,121.713162,29.952107
330212,鄞州区,121.558436,29.831662
330225,象山县,121.877091,29.470206
330226,宁海县,121.432606,29.299836
330281,余姚市,121.156294,30.045404
330282,慈溪市,121.248052,30.177142
330283,奉化市,121.41089,29.662348
330300,温州市,120.672111,28.000575
330302,鹿城区,120.674231,28.003352
330303,龙湾区,120.763469,27.970254
330304,瓯海区,120.637145,28.006444
330324,永嘉县,120.690968,28.153886
330326,平阳县,120.564387,27.6693
330327,苍南县,120.406256,27.507743
330328,文成县,120.09245,27.789133
330329,泰顺县,119.71624,27.557309
330381,瑞安市,120.646171,27.779321
330382,乐清市,120.967147,28.116083
330400,嘉兴市,120.750865,30.762653
330402,南湖区,120.749953,30.764652
330411,秀洲区,120.720431,30.763323
330421,嘉善县,120.921871,30.841352
330424,海盐县,120.942017,30.522223
330481,海宁市,120.688821,30.525544
330482,平湖市,121.014666,30.698921
330483,桐乡市,120.551085,30.629065
330500,湖州市,120.102398,30.867198
330502,吴兴区,120.101416,30.867252
330503,南浔区,120.417195,30.872742
330521,德清县,119.967662,30.534927
330522,长兴县,119.910122,31.00475
330523,安吉县,119.687891,30.631974
330600,绍兴市,120.582112,29.997117
330602,越城区,120.585315,29.996993
330603,柯桥区,120.476075,30.078038
330604,上虞区,120.874185,30.016769
330624,新昌县,120.905665,29.501205
330681,诸暨市,120.244326,29.713662
330683,嵊州市,120.82888,29.586606
330700,金华市,119.649506,29.089524
330702,婺城区,119.652579,29.082607
330703,金东区,119.681264,29.095835
330723,武义县,119.819159,28.896563
330726,浦江县,119.893363,29.451254
330727,磐安县,120.44513,29.052627
330781,兰溪市,119.460521,29.210065
330782,义乌市,120.074911,29.306863
330783,东阳市,120.23334,29.262546
330784,永康市,120.036328,28.895293
330800,衢州市,118.87263,28.941708
330802,柯城区,118.873041,28.944539
330803,衢江区,118.957683,28.973195
330822,常山县,118.521654,28.900039
330824,开化县,118.414435,29.136503
330825,龙游县,119.172525,29.031364
330881,江山市,118.627879,28.734674
330900,舟山市,122.106863,30.016028
330902,定海区,122.108496,30.016423
330903,普陀区,122.301953,29.945614
330921,岱山县,122.201132,30.242865
330922,嵊泗县,122.457809,30.727166
331000,台州市,121.428599,28.661378
331002,椒江区,121.431049,28.67615
331003,黄岩区,121.262138,28.64488
331004,路桥区,121.37292,28.581799
331021,玉环县,121.232337,28.12842
331022,三门县,121.376429,29.118955
331023,天台县,121.031227,29.141126
331024,仙居县,120.735074,28.849213
331081,温岭市,121.373611,28.368781
331082,临海市,121.131229,28.845441
331100,丽水市,119.921786,28.451993
331102,莲都区,119.922293,28.451103
331121,青田县,120.291939,28.135247
331122,缙云县,120.078965,28.654208
331123,遂昌县,119.27589,28.5924
331124,松阳县,119.485292,28.449937
331125,云和县,119.569458,28.111077
331126,庆元县,119.067233,27.618231
331127,景宁畲族自治县,119.634669,27.977247
331181,龙泉市,119.132319,28.069177
340000,安徽省,117.283042,31.86119
340100,合肥市,117.283042,31.86119
340200,芜湖市,118.376451,31.326319
340300,蚌埠市,117.363228,32.939667
340400,淮南市,117.018329,32.647574
340500,马鞍山市,118.507906,31.689362
340600,淮北市,116.794664,33.971707
340700,铜陵市,117.816576,30.929935
340800,安庆市,117.043551,30.50883
341000,黄山市,118.317325,29.709239
341100,滁州市,118.316264,32.303627
341200,阜阳市,115.819729,32.896969
341300,宿州市,116.984084,33.633891
341500,六安市,116.507676,31.752889
341600,亳州市,115.782939,33.869338
341700,池州市,117.489157,30.656037
341800,宣城市,118.757995,30.945667
340100,合肥市,117.283042,31.86119
340102,瑶海区,117.315358,31.86961
340103,庐阳区,117.283776,31.869011
340104,蜀山区,117.262072,31.855868
340111,包河区,117.285751,31.82956
340121,长丰县,117.164699,32.478548
340122,肥东县,117.463222,31.883992
340123,肥西县,117.166118,31.719646
340124,庐江县,117.289844,31.251488
340181,巢湖市,117.874155,31.600518
340200,芜湖市,118.376451,31.326319
340202,镜湖区,118.376343,31.32559
340203,弋江区,118.377476,31.313394
340207,鸠江区,118.400174,31.362716
340208,三山区,118.233987,31.225423
340221,芜湖县,118.572301,31.145262
340222,繁昌县,118.201349,31.080896
340223,南陵县,118.337104,30.919638
340225,无为县,117.911432,31.303075
340300,蚌埠市,117.363228,32.939667
340302,龙子湖区,117.382312,32.950452
340303,蚌山区,117.355789,32.938066
340304,禹会区,117.35259,32.931933
340311,淮上区,117.34709,32.963147
340321,怀远县,117.200171,32.956934
340322,五河县,117.888809,33.146202
340323,固镇县,117.315962,33.318679
340400,淮南市,117.018329,32.647574
340402,大通区,117.052927,32.632066
340403,田家庵区,117.018318,32.644342
340404,谢家集区,116.865354,32.598289
340405,八公山区,116.841111,32.628229
340406,潘集区,116.816879,32.782117
340421,凤台县,116.722769,32.705382
340500,马鞍山市,118.507906,31.689362
340503,花山区,118.511308,31.69902
340504,雨山区,118.493104,31.685912
340506,博望区,118.843742,31.562321
340521,当涂县,118.489873,31.556167
340522,含山县,118.105545,31.727758
340523,和县,118.362998,31.716634
340600,淮北市,116.794664,33.971707
340602,杜集区,116.833925,33.991218
340603,相山区,116.790775,33.970916
340604,烈山区,116.809465,33.889529
340621,濉溪县,116.767435,33.916407
340700,铜陵市,117.816576,30.929935
340702,铜官山区,117.818427,30.93182
340703,狮子山区,117.864094,30.946249
340711,郊区,117.80707,30.908927
340721,铜陵县,117.792288,30.952338
340800,安庆市,117.043551,30.50883
340802,迎江区,117.044965,30.506375
340803,大观区,117.034512,30.505632
340811,宜秀区,117.070003,30.541323
340822,怀宁县,116.828664,30.734994
340823,枞阳县,117.222027,30.700615
340824,潜山县,116.573666,30.638222
340825,太湖县,116.305225,30.451869
340826,宿松县,116.120204,30.158327
340827,望江县,116.690927,30.12491
340828,岳西县,116.360482,30.848502
340881,桐城市,116.959656,31.050576
341000,黄山市,118.317325,29.709239
341002,屯溪区,118.317354,29.709186
341003,黄山区,118.136639,30.294517
341004,徽州区,118.339743,29.825201
341021,歙县,118.428025,29.867748
341022,休宁县,118.188531,29.788878
341023,黟县,117.942911,29.923812
341024,祁门县,117.717237,29.853472
341100,滁州市,118.316264,32.303627
341102,琅琊区,118.316475,32.303797
341103,南谯区,118.296955,32.329841
341122,来安县,118.433293,32.450231
341124,全椒县,118.268576,32.09385
341125,定远县,117.683713,32.527105
341126,凤阳县,117.562461,32.867146
341181,天长市,119.011212,32.6815
341182,明光市,117.998048,32.781206
341200,阜阳市,115.819729,32.896969
341202,颍州区,115.813914,32.891238
341203,颍东区,115.858747,32.908861
341204,颍泉区,115.804525,32.924797
341221,临泉县,115.261688,33.062698
341222,太和县,115.627243,33.16229
341225,阜南县,115.590534,32.638102
341226,颍上县,116.259122,32.637065
341282,界首市,115.362117,33.26153
341300,宿州市,116.984084,33.633891
341302,桥区,116.983309,33.633853
341321,砀山县,116.351113,34.426247
341322,萧县,116.945399,34.183266
341323,灵璧县,117.551493,33.540629
341324,泗县,117.885443,33.47758
341500,六安市,116.507676,31.752889
341502,金安区,116.503288,31.754491
341503,裕安区,116.494543,31.750692
341521,寿县,116.785349,32.577304
341522,霍邱县,116.278875,32.341305
341523,舒城县,116.944088,31.462848
341524,金寨县,115.878514,31.681624
341525,霍山县,116.333078,31.402456
341600,亳州市,115.782939,33.869338
341602,谯城区,115.781214,33.869284
341621,涡阳县,116.211551,33.502831
341622,蒙城县,116.560337,33.260814
341623,利辛县,116.207782,33.143503
341700,池州市,117.489157,30.656037
341702,贵池区,117.488342,30.657378
341721,东至县,117.021476,30.096568
341722,石台县,117.482907,30.210324
341723,青阳县,117.857395,30.63818
341800,宣城市,118.757995,30.945667
341802,宣州区,118.758412,30.946003
341821,郎溪县,119.185024,31.127834
341822,广德县,119.417521,30.893116
341823,泾县,118.412397,30.685975
341824,绩溪县,118.594705,30.065267
341825,旌德县,118.543081,30.288057
341881,宁国市,118.983407,30.626529
350000,福建省,119.306239,26.075302
350100,福州市,119.306239,26.075302
350200,厦门市,118.11022,24.490474
350300,莆田市,119.007558,25.431011
350400,三明市,117.635001,26.265444
350500,泉州市,118.589421,24.908853
350600,漳州市,117.661801,24.510897
350700,南平市,118.178459,26.635627
350800,龙岩市,117.02978,25.091603
350900,宁德市,119.527082,26.65924
350100,福州市,119.306239,26.075302
350102,鼓楼区,119.29929,26.082284
350103,台江区,119.310156,26.058616
350104,仓山区,119.320988,26.038912
350105,马尾区,119.458725,25.991975
350111,晋安区,119.328597,26.078837
350121,闽侯县,119.145117,26.148567
350122,连江县,119.538365,26.202109
350123,罗源县,119.552645,26.487234
350124,闽清县,118.868416,26.223793
350125,永泰县,118.939089,25.864825
350128,平潭县,119.791197,25.503672
350181,福清市,119.376992,25.720402
350182,长乐市,119.510849,25.960583
350200,厦门市,118.11022,24.490474
350203,思明区,118.087828,24.462059
350205,海沧区,118.036364,24.492512
350206,湖里区,118.10943,24.512764
350211,集美区,118.100869,24.572874
350212,同安区,118.150455,24.729333
350213,翔安区,118.242811,24.637479
350300,莆田市,119.007558,25.431011
350302,城厢区,119.001028,25.433737
350303,涵江区,119.119102,25.459273
350304,荔城区,119.020047,25.430047
350305,秀屿区,119.092607,25.316141
350322,仙游县,118.694331,25.356529
350400,三明市,117.635001,26.265444
350402,梅列区,117.63687,26.269208
350403,三元区,117.607418,26.234191
350421,明溪县,117.201845,26.357375
350423,清流县,116.815821,26.17761
350424,宁化县,116.659725,26.259932
350425,大田县,117.849355,25.690803
350426,尤溪县,118.188577,26.169261
350427,沙县,117.789095,26.397361
350428,将乐县,117.473558,26.728667
350429,泰宁县,117.177522,26.897995
350430,建宁县,116.845832,26.831398
350481,永安市,117.364447,25.974075
350500,泉州市,118.589421,24.908853
350502,鲤城区,118.588929,24.907645
350503,丰泽区,118.605147,24.896041
350504,洛江区,118.670312,24.941153
350505,泉港区,118.912285,25.126859
350521,惠安县,118.798954,25.028718
350524,安溪县,118.186014,25.056824
350525,永春县,118.29503,25.320721
350526,德化县,118.242986,25.489004
350527,金门县,118.323221,24.436417
350581,石狮市,118.628402,24.731978
350582,晋江市,118.577338,24.807322
350583,南安市,118.387031,24.959494
350600,漳州市,117.661801,24.510897
350602,芗城区,117.656461,24.509955
350603,龙文区,117.671387,24.515656
350622,云霄县,117.340946,23.950486
350623,漳浦县,117.614023,24.117907
350624,诏安县,117.176083,23.710834
350625,长泰县,117.755913,24.621475
350626,东山县,117.427679,23.702845
350627,南靖县,117.365462,24.516425
350628,平和县,117.313549,24.366158
350629,华安县,117.53631,25.001416
350681,龙海市,117.817292,24.445341
350700,南平市,118.178459,26.635627
350702,延平区,118.178918,26.636079
350703,建阳区,118.12267,27.332067
350721,顺昌县,117.80771,26.792851
350722,浦城县,118.536822,27.920412
350723,光泽县,117.337897,27.542803
350724,松溪县,118.783491,27.525785
350725,政和县,118.858661,27.365398
350781,邵武市,117.491544,27.337952
350782,武夷山市,118.032796,27.751733
350783,建瓯市,118.321765,27.03502
350800,龙岩市,117.02978,25.091603
350802,新罗区,117.030721,25.0918
350803,永定区,116.732691,24.720442
350821,长汀县,116.361007,25.842278
350823,上杭县,116.424774,25.050019
350824,武平县,116.100928,25.08865
350825,连城县,116.756687,25.708506
350881,漳平市,117.42073,25.291597
350900,宁德市,119.527082,26.65924
350902,蕉城区,119.527225,26.659253
350921,霞浦县,120.005214,26.882068
350922,古田县,118.743156,26.577491
350923,屏南县,118.987544,26.910826
350924,寿宁县,119.506733,27.457798
350925,周宁县,119.338239,27.103106
350926,柘荣县,119.898226,27.236163
350981,福安市,119.650798,27.084246
350982,福鼎市,120.219761,27.318884
360000,江西省,115.892151,28.676493
360100,南昌市,115.892151,28.676493
360200,景德镇市,117.214664,29.29256
360300,萍乡市,113.852186,27.622946
360400,九江市,115.992811,29.712034
360500,新余市,114.930835,27.810834
360600,鹰潭市,117.033838,28.238638
360700,赣州市,114.940278,25.85097
360800,吉安市,114.986373,27.111699
360900,宜春市,114.391136,27.8043
361000,抚州市,116.358351,27.98385
361100,上饶市,117.971185,28.44442
360100,南昌市,115.892151,28.676493
360102,东湖区,115.889675,28.682988
360103,西湖区,115.91065,28.662901
360104,青云谱区,115.907292,28.635724
360105,湾里区,115.731324,28.714803
360111,青山湖区,115.949044,28.689292
360121,南昌县,115.942465,28.543781
360123,安义县,115.553109,28.841334
360124,进贤县,116.267671,28.365681
360200,景德镇市,117.214664,29.29256
360202,昌江区,117.195023,29.288465
360203,珠山区,117.214814,29.292812
360222,浮梁县,117.217611,29.352251
360281,乐平市,117.129376,28.967361
360300,萍乡市,113.852186,27.622946
360302,安源区,113.855044,27.625826
360313,湘东区,113.7456,27.639319
360321,莲花县,113.955582,27.127807
360322,上栗县,113.800525,27.877041
360323,芦溪县,114.041206,27.633633
360400,九江市,115.992811,29.712034
360402,庐山区,115.99012,29.676175
360403,浔阳区,115.995947,29.72465
360421,九江县,115.892977,29.610264
360423,武宁县,115.105646,29.260182
360424,修水县,114.573428,29.032729
360425,永修县,115.809055,29.018212
360426,德安县,115.762611,29.327474
360427,星子县,116.043743,29.456169
360428,都昌县,116.205114,29.275105
360429,湖口县,116.244313,29.7263
360430,彭泽县,116.55584,29.898865
360481,瑞昌市,115.669081,29.676599
360482,共青城市,115.805712,29.247884
360500,新余市,114.930835,27.810834
360502,渝水区,114.923923,27.819171
360521,分宜县,114.675262,27.811301
360600,鹰潭市,117.033838,28.238638
360602,月湖区,117.034112,28.239076
360622,余江县,116.822763,28.206177
360681,贵溪市,117.212103,28.283693
360700,赣州市,114.940278,25.85097
360702,章贡区,114.93872,25.851367
360703,南康区,114.756933,25.661721
360721,赣县,115.018461,25.865432
360722,信丰县,114.930893,25.38023
360723,大余县,114.362243,25.395937
360724,上犹县,114.540537,25.794284
360725,崇义县,114.307348,25.687911
360726,安远县,115.392328,25.134591
360727,龙南县,114.792657,24.90476
360728,定南县,115.03267,24.774277
360729,全南县,114.531589,24.742651
360730,宁都县,116.018782,26.472054
360731,于都县,115.411198,25.955033
360732,兴国县,115.351896,26.330489
360733,会昌县,115.791158,25.599125
360734,寻乌县,115.651399,24.954136
360735,石城县,116.342249,26.326582
360781,瑞金市,116.034854,25.875278
360800,吉安市,114.986373,27.111699
360802,吉州区,114.987331,27.112367
360803,青原区,115.016306,27.105879
360821,吉安县,114.905117,27.040042
360822,吉水县,115.134569,27.213445
360823,峡江县,115.319331,27.580862
360824,新干县,115.399294,27.755758
360825,永丰县,115.435559,27.321087
360826,泰和县,114.901393,26.790164
360827,遂川县,114.51689,26.323705
360828,万安县,114.784694,26.462085
360829,安福县,114.61384,27.382746
360830,永新县,114.242534,26.944721
360881,井冈山市,114.284421,26.745919
360900,宜春市,114.391136,27.8043
360902,袁州区,114.387379,27.800117
360921,奉新县,115.389899,28.700672
360922,万载县,114.449012,28.104528
360923,上高县,114.932653,28.234789
360924,宜丰县,114.787381,28.388289
360925,靖安县,115.361744,28.86054
360926,铜鼓县,114.37014,28.520956
360981,丰城市,115.786005,28.191584
360982,樟树市,115.543388,28.055898
360983,高安市,115.381527,28.420951
361000,抚州市,116.358351,27.98385
361002,临川区,116.361404,27.981919
361021,南城县,116.63945,27.55531
361022,黎川县,116.91457,27.292561
361023,南丰县,116.532994,27.210132
361024,崇仁县,116.059109,27.760907
361025,乐安县,115.838432,27.420101
361026,宜黄县,116.223023,27.546512
361027,金溪县,116.778751,27.907387
361028,资溪县,117.066095,27.70653
361029,东乡县,116.605341,28.2325
361030,广昌县,116.327291,26.838426
361100,上饶市,117.971185,28.44442
361102,信州区,117.970522,28.445378
361121,上饶县,117.90612,28.453897
361123,玉山县,118.244408,28.673479
361124,铅山县,117.711906,28.310892
361125,横峰县,117.608247,28.415103
361126,弋阳县,117.435002,28.402391
361127,余干县,116.691072,28.69173
361128,鄱阳县,116.673748,28.993374
361129,万年县,117.07015,28.692589
361130,婺源县,117.86219,29.254015
361181,德兴市,117.578732,28.945034
370000,山东省,117.000923,36.675807
370100,济南市,117.000923,36.675807
370200,青岛市,120.355173,36.082982
370300,淄博市,118.047648,36.814939
370400,枣庄市,117.557964,34.856424
370500,东营市,118.66471,37.434564
370600,烟台市,121.391382,37.539297
370700,潍坊市,119.107078,36.70925
370800,济宁市,116.587245,35.415393
370900,泰安市,117.129063,36.194968
371000,威海市,122.116394,37.509691
371100,日照市,119.461208,35.428588
371200,莱芜市,117.677736,36.214397
371300,临沂市,118.326443,35.065282
371400,德州市,116.307428,37.453968
371500,聊城市,115.980367,36.456013
371600,滨州市,118.016974,37.383542
371700,菏泽市,115.469381,35.246531
370100,济南市,117.000923,36.675807
370102,历下区,117.03862,36.664169
370103,市中区,116.99898,36.657354
370104,槐荫区,116.947921,36.668205
370105,天桥区,116.996086,36.693374
370112,历城区,117.063744,36.681744
370113,长清区,116.74588,36.561049
370124,平阴县,116.455054,36.286923
370125,济阳县,117.176035,36.976772
370126,商河县,117.156369,37.310544
370181,章丘市,117.54069,36.71209
370200,青岛市,120.355173,36.082982
370202,市南区,120.395966,36.070892
370203,市北区,120.355026,36.083819
370211,黄岛区,119.995518,35.875138
370212,崂山区,120.467393,36.102569
370213,李沧区,120.421236,36.160023
370214,城阳区,120.389135,36.306833
370281,胶州市,120.006202,36.285878
370282,即墨市,120.447352,36.390847
370283,平度市,119.959012,36.788828
370285,莱西市,120.526226,36.86509
370300,淄博市,118.047648,36.814939
370302,淄川区,117.967696,36.647272
370303,张店区,118.053521,36.807049
370304,博山区,117.85823,36.497567
370305,临淄区,118.306018,36.816657
370306,周村区,117.851036,36.803699
370321,桓台县,118.101556,36.959773
370322,高青县,117.829839,37.169581
370323,沂源县,118.166161,36.186282
370400,枣庄市,117.557964,34.856424
370402,市中区,117.557281,34.856651
370403,薛城区,117.265293,34.79789
370404,峄城区,117.586316,34.767713
370405,台儿庄区,117.734747,34.564815
370406,山亭区,117.458968,35.096077
370481,滕州市,117.162098,35.088498
370500,东营市,118.66471,37.434564
370502,东营区,118.507543,37.461567
370503,河口区,118.529613,37.886015
370521,垦利县,118.551314,37.588679
370522,利津县,118.248854,37.493365
370523,广饶县,118.407522,37.05161
370600,烟台市,121.391382,37.539297
370602,芝罘区,121.385877,37.540925
370611,福山区,121.264741,37.496875
370612,牟平区,121.60151,37.388356
370613,莱山区,121.448866,37.473549
370634,长岛县,120.738345,37.916194
370681,龙口市,120.528328,37.648446
370682,莱阳市,120.711151,36.977037
370683,莱州市,119.942135,37.182725
370684,蓬莱市,120.762689,37.811168
370685,招远市,120.403142,37.364919
370686,栖霞市,120.834097,37.305854
370687,海阳市,121.168392,36.780657
370700,潍坊市,119.107078,36.70925
370702,潍城区,119.103784,36.710062
370703,寒亭区,119.207866,36.772103
370704,坊子区,119.166326,36.654616
370705,奎文区,119.137357,36.709494
370724,临朐县,118.539876,36.516371
370725,昌乐县,118.839995,36.703253
370781,青州市,118.484693,36.697855
370782,诸城市,119.403182,35.997093
370783,寿光市,118.736451,36.874411
370784,安丘市,119.206886,36.427417
370785,高密市,119.757033,36.37754
370786,昌邑市,119.394502,36.854937
370800,济宁市,116.587245,35.415393
370811,任城区,116.595261,35.414828
370812,兖州区,116.828996,35.556445
370826,微山县,117.12861,34.809525
370827,鱼台县,116.650023,34.997706
370828,金乡县,116.310364,35.06977
370829,嘉祥县,116.342885,35.398098
370830,汶上县,116.487146,35.721746
370831,泗水县,117.273605,35.653216
370832,梁山县,116.08963,35.801843
370881,曲阜市,116.991885,35.592788
370883,邹城市,116.96673,35.405259
370900,泰安市,117.129063,36.194968
370902,泰山区,117.129984,36.189313
370911,岱岳区,117.04353,36.1841
370921,宁阳县,116.799297,35.76754
370923,东平县,116.461052,35.930467
370982,新泰市,117.766092,35.910387
370983,肥城市,116.763703,36.1856
371000,威海市,122.116394,37.509691
371002,环翠区,122.116189,37.510754
371003,文登区,122.057139,37.196211
371082,荣成市,122.422896,37.160134
371083,乳山市,121.536346,36.919622
371100,日照市,119.461208,35.428588
371102,东港区,119.457703,35.426152
371103,岚山区,119.315844,35.119794
371121,五莲县,119.206745,35.751936
371122,莒县,118.832859,35.588115
371200,莱芜市,117.677736,36.214397
371202,莱城区,117.678351,36.213662
371203,钢城区,117.82033,36.058038
371300,临沂市,118.326443,35.065282
371302,兰山区,118.327667,35.061631
371311,罗庄区,118.284795,34.997204
371312,河东区,118.398296,35.085004
371321,沂南县,118.455395,35.547002
371322,郯城县,118.342963,34.614741
371323,沂水县,118.634543,35.787029
371324,兰陵县,118.049968,34.855573
371325,费县,117.968869,35.269174
371326,平邑县,117.631884,35.511519
371327,莒南县,118.838322,35.175911
371328,蒙阴县,117.943271,35.712435
371329,临沭县,118.648379,34.917062
371400,德州市,116.307428,37.453968
371402,德城区,116.307076,37.453923
371403,陵城区,116.574929,37.332848
371422,宁津县,116.79372,37.649619
371423,庆云县,117.390507,37.777724
371424,临邑县,116.867028,37.192044
371425,齐河县,116.758394,36.795497
371426,平原县,116.433904,37.164465
371427,夏津县,116.003816,36.950501
371428,武城县,116.078627,37.209527
371481,乐陵市,117.216657,37.729115
371482,禹城市,116.642554,36.934485
371500,聊城市,115.980367,36.456013
371502,东昌府区,115.980023,36.45606
371521,阳谷县,115.784287,36.113708
371522,莘县,115.667291,36.237597
371523,茌平县,116.25335,36.591934
371524,东阿县,116.248855,36.336004
371525,冠县,115.444808,36.483753
371526,高唐县,116.229662,36.859755
371581,临清市,115.713462,36.842598
371600,滨州市,118.016974,37.383542
371602,滨城区,118.020149,37.384842
371603,沾化区,118.129902,37.698456
371621,惠民县,117.508941,37.483876
371622,阳信县,117.581326,37.640492
371623,无棣县,117.616325,37.740848
371625,博兴县,118.123096,37.147002
371626,邹平县,117.736807,36.87803
371700,菏泽市,115.469381,35.246531
371702,牡丹区,115.470946,35.24311
371721,曹县,115.549482,34.823253
371722,单县,116.08262,34.790851
371723,成武县,115.897349,34.947366
371724,巨野县,116.089341,35.390999
371725,郓城县,115.93885,35.594773
371726,鄄城县,115.51434,35.560257
371727,定陶县,115.569601,35.072701
371728,东明县,115.098412,35.289637
410000,河南省,113.665412,34.757975
410100,郑州市,113.665412,34.757975
410200,开封市,114.341447,34.797049
410300,洛阳市,112.434468,34.663041
410400,平顶山市,113.307718,33.735241
410500,安阳市,114.352482,36.103442
410600,鹤壁市,114.295444,35.748236
410700,新乡市,113.883991,35.302616
410800,焦作市,113.238266,35.23904
410900,濮阳市,115.041299,35.768234
411000,许昌市,113.826063,34.022956
411100,漯河市,114.026405,33.575855
411200,三门峡市,111.194099,34.777338
411300,南阳市,112.540918,32.999082
411400,商丘市,115.650497,34.437054
411500,信阳市,114.075031,32.123274
411600,周口市,114.649653,33.620357
411700,驻马店市,114.024736,32.980169
419001,济源市,112.590047,35.090378
410100,郑州市,113.665412,34.757975
410102,中原区,113.611576,34.748286
410103,二七区,113.645422,34.730936
410104,管城回族区,113.685313,34.746453
410105,金水区,113.686037,34.775838
410106,上街区,113.298282,34.808689
410108,惠济区,113.61836,34.828591
410122,中牟县,114.022521,34.721976
410181,巩义市,112.98283,34.75218
410182,荥阳市,113.391523,34.789077
410183,新密市,113.380616,34.537846
410184,新郑市,113.73967,34.394219
410185,登封市,113.037768,34.459939
410200,开封市,114.341447,34.797049
410202,龙亭区,114.353348,34.799833
410203,顺河回族区,114.364875,34.800459
410204,鼓楼区,114.3485,34.792383
410205,禹王台区,114.350246,34.779727
410212,祥符区,114.437622,34.756476
410221,杞县,114.770472,34.554585
410222,通许县,114.467734,34.477302
410223,尉氏县,114.193927,34.412256
410225,兰考县,114.820572,34.829899
410300,洛阳市,112.434468,34.663041
410302,老城区,112.477298,34.682945
410303,西工区,112.443232,34.667847
410304,e河回族区,112.491625,34.684738
410305,涧西区,112.399243,34.654251
410306,吉利区,112.584796,34.899093
410311,洛龙区,112.456634,34.618557
410322,孟津县,112.443892,34.826485
410323,新安县,112.141403,34.728679
410324,栾川县,111.618386,33.783195
410325,嵩县,112.087765,34.131563
410326,汝阳县,112.473789,34.15323
410327,宜阳县,112.179989,34.516478
410328,洛宁县,111.655399,34.387179
410329,伊川县,112.429384,34.423416
410381,偃师市,112.787739,34.723042
410400,平顶山市,113.307718,33.735241
410402,新华区,113.299061,33.737579
410403,卫东区,113.310327,33.739285
410404,石龙区,112.889885,33.901538
410411,湛河区,113.320873,33.725681
410421,宝丰县,113.066812,33.866359
410422,叶县,113.358298,33.621252
410423,鲁山县,112.906703,33.740325
410425,郏县,113.220451,33.971993
410481,舞钢市,113.52625,33.302082
410482,汝州市,112.845336,34.167408
410500,安阳市,114.352482,36.103442
410502,文峰区,114.352562,36.098101
410503,北关区,114.352646,36.10978
410505,殷都区,114.300098,36.108974
410506,龙安区,114.323522,36.095568
410522,安阳县,114.130207,36.130585
410523,汤阴县,114.362357,35.922349
410526,滑县,114.524,35.574628
410527,内黄县,114.904582,35.953702
410581,林州市,113.823767,36.063403
410600,鹤壁市,114.295444,35.748236
410602,鹤山区,114.166551,35.936128
410603,山城区,114.184202,35.896058
410611,淇滨区,114.293917,35.748382
410621,浚县,114.550162,35.671282
410622,淇县,114.200379,35.609478
410700,新乡市,113.883991,35.302616
410702,红旗区,113.878158,35.302684
410703,卫滨区,113.866065,35.304905
410704,凤泉区,113.906712,35.379855
410711,牧野区,113.89716,35.312974
410721,新乡县,113.806186,35.190021
410724,获嘉县,113.657249,35.261685
410725,原阳县,113.965966,35.054001
410726,延津县,114.200982,35.149515
410727,封丘县,114.423405,35.04057
410728,长垣县,114.673807,35.19615
410781,卫辉市,114.065855,35.404295
410782,辉县市,113.802518,35.461318
410800,焦作市,113.238266,35.23904
410802,解放区,113.226126,35.241353
410803,中站区,113.175485,35.236145
410804,马村区,113.321703,35.265453
410811,山阳区,113.26766,35.21476
410821,修武县,113.447465,35.229923
410822,博爱县,113.069313,35.170351
410823,武陟县,113.408334,35.09885
410825,温县,113.079118,34.941233
410882,沁阳市,112.934538,35.08901
410883,孟州市,112.78708,34.90963
410900,濮阳市,115.041299,35.768234
410902,华龙区,115.03184,35.760473
410922,清丰县,115.107287,35.902413
410923,南乐县,115.204336,36.075204
410926,范县,115.504212,35.851977
410927,台前县,115.855681,35.996474
410928,濮阳县,115.023844,35.710349
411000,许昌市,113.826063,34.022956
411002,魏都区,113.828307,34.02711
411023,许昌县,113.842898,34.005018
411024,鄢陵县,114.188507,34.100502
411025,襄城县,113.493166,33.855943
411081,禹州市,113.471316,34.154403
411082,长葛市,113.768912,34.219257
411100,漯河市,114.026405,33.575855
411102,源汇区,114.017948,33.565441
411103,郾城区,114.016813,33.588897
411104,召陵区,114.051686,33.567555
411121,舞阳县,113.610565,33.436278
411122,临颍县,113.938891,33.80609
411200,三门峡市,111.194099,34.777338
411202,湖滨区,111.19487,34.77812
411221,渑池县,111.762992,34.763487
411224,卢氏县,111.052649,34.053995
411281,义马市,111.869417,34.746868
411282,灵宝市,110.88577,34.521264
411300,南阳市,112.540918,32.999082
411302,宛城区,112.544591,32.994857
411303,卧龙区,112.528789,32.989877
411321,南召县,112.435583,33.488617
411322,方城县,113.010933,33.255138
411323,西峡县,111.485772,33.302981
411324,镇平县,112.232722,33.036651
411325,内乡县,111.843801,33.046358
411326,淅川县,111.489026,33.136106
411327,社旗县,112.938279,33.056126
411328,唐河县,112.838492,32.687892
411329,新野县,112.365624,32.524006
411330,桐柏县,113.406059,32.367153
411381,邓州市,112.092716,32.681642
411400,商丘市,115.650497,34.437054
411402,梁园区,115.65459,34.436553
411403,睢阳区,115.653813,34.390536
411421,民权县,115.148146,34.648455
411422,睢县,115.070109,34.428433
411423,宁陵县,115.320055,34.449299
411424,柘城县,115.307433,34.075277
411425,虞城县,115.863811,34.399634
411426,夏邑县,116.13989,34.240894
411481,永城市,116.449672,33.931318
411500,信阳市,114.075031,32.123274
411502,负忧,114.075031,32.123274
411503,平桥区,114.126027,32.098395
411521,罗山县,114.533414,32.203206
411522,光山县,114.903577,32.010398
411523,新县,114.87705,31.63515
411524,商城县,115.406297,31.799982
411525,固始县,115.667328,32.183074
411526,潢川县,115.050123,32.134024
411527,淮滨县,115.415451,32.452639
411528,息县,114.740713,32.344744
411600,周口市,114.649653,33.620357
411602,川汇区,114.652136,33.614836
411621,扶沟县,114.392008,34.054061
411622,西华县,114.530067,33.784378
411623,商水县,114.60927,33.543845
411624,沈丘县,115.078375,33.395514
411625,郸城县,115.189,33.643852
411626,淮阳县,114.870166,33.732547
411627,太康县,114.853834,34.065312
411628,鹿邑县,115.486386,33.861067
411681,项城市,114.899521,33.443085
411700,驻马店市,114.024736,32.980169
411702,驿城区,114.029149,32.977559
411721,西平县,114.026864,33.382315
411722,上蔡县,114.266892,33.264719
411723,平舆县,114.637105,32.955626
411724,正阳县,114.38948,32.601826
411725,确山县,114.026679,32.801538
411726,泌阳县,113.32605,32.725129
411727,汝南县,114.359495,33.004535
411728,遂平县,114.00371,33.14698
411729,新蔡县,114.975246,32.749948
419001,济源市,112.590047,35.090378
420000,湖北省,114.298572,30.584355
420100,武汉市,114.298572,30.584355
420200,黄石市,115.077048,30.220074
420300,十堰市,110.787916,32.646907
420500,宜昌市,111.290843,30.702636
420600,襄阳市,112.144146,32.042426
420700,鄂州市,114.890593,30.396536
420800,荆门市,112.204251,31.03542
420900,孝感市,113.926655,30.926423
421000,荆州市,112.23813,30.326857
421100,黄冈市,114.879365,30.447711
421200,咸宁市,114.328963,29.832798
421300,随州市,113.37377,31.717497
422800,恩施土家族苗族自治州,109.48699,30.283114
429004,仙桃市,113.453974,30.364953
429005,潜江市,112.896866,30.421215
429006,天门市,113.165862,30.653061
429021,神农架林区,110.671525,31.744449
420100,武汉市,114.298572,30.584355
420102,江岸区,114.30304,30.594911
420103,江汉区,114.283109,30.578771
420104,~口区,114.264568,30.57061
420105,汉阳区,114.265807,30.549326
420106,武昌区,114.307344,30.546536
420107,青山区,114.39707,30.634215
420111,洪山区,114.400718,30.504259
420112,东西湖区,114.142483,30.622467
420113,汉南区,114.08124,30.309637
420114,蔡甸区,114.029341,30.582186
420115,江夏区,114.313961,30.349045
420116,黄陂区,114.374025,30.874155
420117,新洲区,114.802108,30.842149
420200,黄石市,115.077048,30.220074
420202,黄石港区,115.090164,30.212086
420203,西塞山区,115.093354,30.205365
420204,下陆区,114.975755,30.177845
420205,铁山区,114.901366,30.20601
420222,阳新县,115.212883,29.841572
420281,大冶市,114.974842,30.098804
420300,十堰市,110.787916,32.646907
420302,茅箭区,110.78621,32.644463
420303,张湾区,110.772365,32.652516
420304,郧阳区,110.812099,32.838267
420322,郧西县,110.426472,32.991457
420323,竹山县,110.2296,32.22586
420324,竹溪县,109.717196,32.315342
420325,房县,110.741966,32.055002
420381,丹江口市,111.513793,32.538839
420500,宜昌市,111.290843,30.702636
420502,西陵区,111.295468,30.702476
420503,伍家岗区,111.307215,30.679053
420504,点军区,111.268163,30.692322
420505,V亭区,111.427642,30.530744
420506,夷陵区,111.326747,30.770199
420525,远安县,111.64331,31.059626
420526,兴山县,110.754499,31.34795
420527,秭归县,110.976785,30.823908
420528,长阳土家族自治县,111.198475,30.466534
420529,五峰土家族自治县,110.674938,30.199252
420581,宜都市,111.454367,30.387234
420582,当阳市,111.793419,30.824492
420583,枝江市,111.751799,30.425364
420600,襄阳市,112.144146,32.042426
420602,襄城区,112.150327,32.015088
420606,樊城区,112.13957,32.058589
420607,襄州区,112.197378,32.085517
420624,南漳县,111.844424,31.77692
420625,谷城县,111.640147,32.262676
420626,保康县,111.262235,31.873507
420682,老河口市,111.675732,32.385438
420683,枣阳市,112.765268,32.123083
420684,宜城市,112.261441,31.709203
420700,鄂州市,114.890593,30.396536
420702,梁子湖区,114.681967,30.098191
420703,华容区,114.74148,30.534468
420704,鄂城区,114.890012,30.39669
420800,荆门市,112.204251,31.03542
420802,东宝区,112.204804,31.033461
420804,掇刀区,112.198413,30.980798
420821,京山县,113.114595,31.022458
420822,沙洋县,112.595218,30.70359
420881,钟祥市,112.587267,31.165573
420900,孝感市,113.926655,30.926423
420902,孝南区,113.925849,30.925966
420921,孝昌县,113.988964,31.251618
420922,大悟县,114.126249,31.565483
420923,云梦县,113.750616,31.021691
420981,应城市,113.573842,30.939038
420982,安陆市,113.690401,31.26174
420984,汉川市,113.835301,30.652165
421000,荆州市,112.23813,30.326857
421002,沙市区,112.257433,30.315895
421003,荆州区,112.195354,30.350674
421022,公安县,112.230179,30.059065
421023,监利县,112.904344,29.820079
421024,江陵县,112.41735,30.033919
421081,石首市,112.40887,29.716437
421083,洪湖市,113.470304,29.81297
421087,松滋市,111.77818,30.176037
421100,黄冈市,114.879365,30.447711
421102,黄州区,114.878934,30.447435
421121,团风县,114.872029,30.63569
421122,红安县,114.615095,31.284777
421123,罗田县,115.398984,30.781679
421124,英山县,115.67753,30.735794
421125,浠水县,115.26344,30.454837
421126,蕲春县,115.433964,30.234927
421127,黄梅县,115.942548,30.075113
421181,麻城市,115.02541,31.177906
421182,武穴市,115.56242,29.849342
421200,咸宁市,114.328963,29.832798
421202,咸安区,114.333894,29.824716
421221,嘉鱼县,113.921547,29.973363
421222,通城县,113.814131,29.246076
421223,崇阳县,114.049958,29.54101
421224,通山县,114.493163,29.604455
421281,赤壁市,113.88366,29.716879
421300,随州市,113.37377,31.717497
421303,曾都区,113.374519,31.717521
421321,随县,113.301384,31.854246
421381,广水市,113.826601,31.617731
422800,恩施土家族苗族自治州,109.48699,30.283114
422801,恩施市,109.486761,30.282406
422802,利川市,108.943491,30.294247
422822,建始县,109.723822,30.601632
422823,巴东县,110.336665,31.041403
422825,宣恩县,109.482819,29.98867
422826,咸丰县,109.15041,29.678967
422827,来凤县,109.408328,29.506945
422828,鹤峰县,110.033699,29.887298
429004,仙桃市,113.453974,30.364953
429005,潜江市,112.896866,30.421215
429006,天门市,113.165862,30.653061
429021,神农架林区,110.671525,31.744449
430000,湖南省,112.982279,28.19409
430100,长沙市,112.982279,28.19409
430200,株洲市,113.151737,27.835806
430300,湘潭市,112.944052,27.82973
430400,衡阳市,112.607693,26.900358
430500,邵阳市,111.46923,27.237842
430600,岳阳市,113.132855,29.37029
430700,常德市,111.691347,29.040225
430800,张家界市,110.479921,29.127401
430900,益阳市,112.355042,28.570066
431000,郴州市,113.032067,25.793589
431100,永州市,111.608019,26.434516
431200,怀化市,109.97824,27.550082
431300,娄底市,112.008497,27.728136
433100,湘西土家族苗族自治州,109.739735,28.314296
430100,长沙市,112.982279,28.19409
430102,芙蓉区,112.988094,28.193106
430103,天心区,112.97307,28.192375
430104,岳麓区,112.911591,28.213044
430105,开福区,112.985525,28.201336
430111,雨花区,113.016337,28.109937
430112,望城区,112.819549,28.347458
430121,长沙县,113.080098,28.237888
430124,宁乡县,112.553182,28.253928
430181,浏阳市,113.633301,28.141112
430200,株洲市,113.151737,27.835806
430202,荷塘区,113.162548,27.833036
430203,芦淞区,113.155169,27.827246
430204,石峰区,113.11295,27.871945
430211,天元区,113.136252,27.826909
430221,株洲县,113.146176,27.705844
430223,攸县,113.345774,27.000071
430224,茶陵县,113.546509,26.789534
430225,炎陵县,113.776884,26.489459
430281,醴陵市,113.507157,27.657873
430300,湘潭市,112.944052,27.82973
430302,雨湖区,112.907427,27.86077
430304,岳塘区,112.927707,27.828854
430321,湘潭县,112.952829,27.778601
430381,湘乡市,112.525217,27.734918
430382,韶山市,112.52848,27.922682
430400,衡阳市,112.607693,26.900358
430405,珠晖区,112.626324,26.891063
430406,雁峰区,112.612241,26.893694
430407,石鼓区,112.607635,26.903908
430408,蒸湘区,112.570608,26.89087
430412,南岳区,112.734147,27.240536
430421,衡阳县,112.379643,26.962388
430422,衡南县,112.677459,26.739973
430423,衡山县,112.86971,27.234808
430424,衡东县,112.950412,27.083531
430426,祁东县,112.111192,26.787109
430481,耒阳市,112.847215,26.414162
430482,常宁市,112.396821,26.406773
430500,邵阳市,111.46923,27.237842
430502,双清区,111.479756,27.240001
430503,大祥区,111.462968,27.233593
430511,北塔区,111.452315,27.245688
430521,邵东县,111.743168,27.257273
430522,新邵县,111.459762,27.311429
430523,邵阳县,111.2757,26.989713
430524,隆回县,111.038785,27.116002
430525,洞口县,110.579212,27.062286
430527,绥宁县,110.155075,26.580622
430528,新宁县,110.859115,26.438912
430529,城步苗族自治县,110.313226,26.363575
430581,武冈市,110.636804,26.732086
430600,岳阳市,113.132855,29.37029
430602,岳阳楼区,113.120751,29.366784
430603,云溪区,113.27387,29.473395
430611,君山区,113.004082,29.438062
430621,岳阳县,113.116073,29.144843
430623,华容县,112.559369,29.524107
430624,湘阴县,112.889748,28.677498
430626,平江县,113.593751,28.701523
430681,汨罗市,113.079419,28.803149
430682,临湘市,113.450809,29.471594
430700,常德市,111.691347,29.040225
430702,武陵区,111.690718,29.040477
430703,鼎城区,111.685327,29.014426
430721,安乡县,112.172289,29.414483
430722,汉寿县,111.968506,28.907319
430723,澧县,111.761682,29.64264
430724,临澧县,111.645602,29.443217
430725,桃源县,111.484503,28.902734
430726,石门县,111.379087,29.584703
430781,津市市,111.879609,29.630867
430800,张家界市,110.479921,29.127401
430802,永定区,110.484559,29.125961
430811,武陵源区,110.54758,29.347827
430821,慈利县,111.132702,29.423876
430822,桑植县,110.164039,29.399939
430900,益阳市,112.355042,28.570066
430902,资阳区,112.33084,28.592771
430903,赫山区,112.360946,28.568327
430921,南县,112.410399,29.372181
430922,桃江县,112.139732,28.520993
430923,安化县,111.221824,28.377421
430981,沅江市,112.361088,28.839713
431000,郴州市,113.032067,25.793589
431002,北湖区,113.032208,25.792628
431003,苏仙区,113.038698,25.793157
431021,桂阳县,112.734466,25.737447
431022,宜章县,112.947884,25.394345
431023,永兴县,113.114819,26.129392
431024,嘉禾县,112.370618,25.587309
431025,临武县,112.564589,25.279119
431026,汝城县,113.685686,25.553759
431027,桂东县,113.945879,26.073917
431028,安仁县,113.27217,26.708625
431081,资兴市,113.23682,25.974152
431100,永州市,111.608019,26.434516
431102,零陵区,111.626348,26.223347
431103,冷水滩区,111.607156,26.434364
431121,祁阳县,111.85734,26.585929
431122,东安县,111.313035,26.397278
431123,双牌县,111.662146,25.959397
431124,道县,111.591614,25.518444
431125,江永县,111.346803,25.268154
431126,宁远县,111.944529,25.584112
431127,蓝山县,112.194195,25.375255
431128,新田县,112.220341,25.906927
431129,江华瑶族自治县,111.577276,25.182596
431200,怀化市,109.97824,27.550082
431202,鹤城区,109.982242,27.548474
431221,中方县,109.948061,27.43736
431222,沅陵县,110.399161,28.455554
431223,辰溪县,110.196953,28.005474
431224,溆浦县,110.593373,27.903802
431225,会同县,109.720785,26.870789
431226,麻阳苗族自治县,109.802807,27.865991
431227,新晃侗族自治县,109.174443,27.359897
431228,芷江侗族自治县,109.687777,27.437996
431229,靖州苗族侗族自治县,109.691159,26.573511
431230,通道侗族自治县,109.783359,26.158349
431281,洪江市,109.831765,27.201876
431300,娄底市,112.008497,27.728136
431302,娄星区,112.008486,27.726643
431321,双峰县,112.198245,27.459126
431322,新化县,111.306747,27.737456
431381,冷水江市,111.434674,27.685759
431382,涟源市,111.670847,27.692301
433100,湘西土家族苗族自治州,109.739735,28.314296
433101,吉首市,109.738273,28.314827
433122,泸溪县,110.214428,28.214516
433123,凤凰县,109.599191,27.948308
433124,花垣县,109.479063,28.581352
433125,保靖县,109.651445,28.709605
433126,古丈县,109.949592,28.616973
433127,永顺县,109.853292,28.998068
433130,龙山县,109.441189,29.453438
440000,广东省,113.280637,23.125178
440100,广州市,113.280637,23.125178
440200,韶关市,113.591544,24.801322
440300,深圳市,114.085947,22.547
440400,珠海市,113.553986,22.224979
440500,汕头市,116.708463,23.37102
440600,佛山市,113.122717,23.028762
440700,江门市,113.094942,22.590431
440800,湛江市,110.364977,21.274898
440900,茂名市,110.919229,21.659751
441200,肇庆市,112.472529,23.051546
441300,惠州市,114.412599,23.079404
441400,梅州市,116.117582,24.299112
441500,汕尾市,115.364238,22.774485
441600,河源市,114.697802,23.746266
441700,阳江市,111.975107,21.859222
441800,清远市,113.051227,23.685022
441900,东莞市,113.746262,23.046237
442000,中山市,113.382391,22.521113
445100,潮州市,116.632301,23.661701
445200,揭阳市,116.355733,23.543778
445300,云浮市,112.044439,22.929801
440100,广州市,113.280637,23.125178
440103,荔湾区,113.243038,23.124943
440104,越秀区,113.280714,23.125624
440105,海珠区,113.262008,23.103131
440106,天河区,113.335367,23.13559
440111,白云区,113.262831,23.162281
440112,黄埔区,113.450761,23.103239
440113,番禺区,113.364619,22.938582
440114,花都区,113.211184,23.39205
440115,南沙区,113.53738,22.794531
440117,从化区,113.587386,23.545283
440118,增城区,113.829579,23.290497
440200,韶关市,113.591544,24.801322
440203,武江区,113.588289,24.80016
440204,浈江区,113.599224,24.803977
440205,曲江区,113.605582,24.680195
440222,始兴县,114.067205,24.948364
440224,仁化县,113.748627,25.088226
440229,翁源县,114.131289,24.353887
440232,乳源瑶族自治县,113.278417,24.776109
440233,新丰县,114.207034,24.055412
440281,乐昌市,113.352413,25.128445
440282,南雄市,114.311231,25.115328
440300,深圳市,114.085947,22.547
440303,罗湖区,114.123885,22.555341
440304,福田区,114.05096,22.541009
440305,南山区,113.92943,22.531221
440306,宝安区,113.828671,22.754741
440307,龙岗区,114.251372,22.721511
440308,盐田区,114.235366,22.555069
440400,珠海市,113.553986,22.224979
440402,香洲区,113.55027,22.271249
440403,斗门区,113.297739,22.209117
440404,金湾区,113.345071,22.139122
440500,汕头市,116.708463,23.37102
440507,龙湖区,116.732015,23.373754
440511,金平区,116.703583,23.367071
440512,濠江区,116.729528,23.279345
440513,潮阳区,116.602602,23.262336
440514,潮南区,116.423607,23.249798
440515,澄海区,116.76336,23.46844
440523,南澳县,117.027105,23.419562
440600,佛山市,113.122717,23.028762
440604,禅城区,113.112414,23.019643
440605,南海区,113.145577,23.031562
440606,顺德区,113.281826,22.75851
440607,三水区,112.899414,23.16504
440608,高明区,112.882123,22.893855
440700,江门市,113.094942,22.590431
440703,蓬江区,113.07859,22.59677
440704,江海区,113.120601,22.572211
440705,新会区,113.038584,22.520247
440781,台山市,112.793414,22.250713
440783,开平市,112.692262,22.366286
440784,鹤山市,112.961795,22.768104
440785,恩平市,112.314051,22.182956
440800,湛江市,110.364977,21.274898
440802,赤坎区,110.361634,21.273365
440803,霞山区,110.406382,21.194229
440804,坡头区,110.455632,21.24441
440811,麻章区,110.329167,21.265997
440823,遂溪县,110.255321,21.376915
440825,徐闻县,110.175718,20.326083
440881,廉江市,110.284961,21.611281
440882,雷州市,110.088275,20.908523
440883,吴川市,110.780508,21.428453
440900,茂名市,110.919229,21.659751
440902,茂南区,110.920542,21.660425
440904,电白区,111.007264,21.507219
440981,高州市,110.853251,21.915153
440982,化州市,110.63839,21.654953
440983,信宜市,110.941656,22.352681
441200,肇庆市,112.472529,23.051546
441202,端州区,112.472329,23.052662
441203,鼎湖区,112.565249,23.155822
441223,广宁县,112.440419,23.631486
441224,怀集县,112.182466,23.913072
441225,封开县,111.502973,23.434731
441226,德庆县,111.78156,23.141711
441284,四会市,112.695028,23.340324
441300,惠州市,114.412599,23.079404
441302,惠城区,114.413978,23.079883
441303,惠阳区,114.469444,22.78851
441322,博罗县,114.284254,23.167575
441323,惠东县,114.723092,22.983036
441324,龙门县,114.259986,23.723894
441400,梅州市,116.117582,24.299112
441402,梅江区,116.12116,24.302593
441403,梅县区,116.083482,24.267825
441422,大埔县,116.69552,24.351587
441423,丰顺县,116.184419,23.752771
441424,五华县,115.775004,23.925424
441426,平远县,115.891729,24.569651
441427,蕉岭县,116.170531,24.653313
441481,兴宁市,115.731648,24.138077
441500,汕尾市,115.364238,22.774485
441502,城区,115.363667,22.776227
441521,海丰县,115.337324,22.971042
441523,陆河县,115.657565,23.302682
441581,陆丰市,115.644203,22.946104
441600,河源市,114.697802,23.746266
441602,源城区,114.696828,23.746255
441621,紫金县,115.184383,23.633744
441622,龙川县,115.256415,24.101174
441623,连平县,114.495952,24.364227
441624,和平县,114.941473,24.44318
441625,东源县,114.742711,23.789093
441700,阳江市,111.975107,21.859222
441702,江城区,111.968909,21.859182
441704,阳东区,112.011267,21.864728
441721,阳西县,111.617556,21.75367
441781,阳春市,111.7905,22.169598
441800,清远市,113.051227,23.685022
441802,清城区,113.048698,23.688976
441803,清新区,113.015203,23.736949
441821,佛冈县,113.534094,23.866739
441823,阳山县,112.634019,24.470286
441825,连山壮族瑶族自治县,112.086555,24.567271
441826,连南瑶族自治县,112.290808,24.719097
441881,英德市,113.405404,24.18612
441882,连州市,112.379271,24.783966
441900,东莞市,113.746262,23.046237
442000,中山市,113.382391,22.521113
445100,潮州市,116.632301,23.661701
445102,湘桥区,116.63365,23.664675
445103,潮安区,116.67931,23.461012
445122,饶平县,117.00205,23.668171
445200,揭阳市,116.355733,23.543778
445202,榕城区,116.357045,23.535524
445203,揭东区,116.412947,23.569887
445222,揭西县,115.838708,23.4273
445224,惠来县,116.295832,23.029834
445281,普宁市,116.165082,23.29788
445300,云浮市,112.044439,22.929801
445302,云城区,112.04471,22.930827
445303,云安区,112.005609,23.073152
445321,新兴县,112.23083,22.703204
445322,郁南县,111.535921,23.237709
445381,罗定市,111.578201,22.765415
450000,广西壮族自治区,108.320004,22.82402
450100,南宁市,108.320004,22.82402
450200,柳州市,109.411703,24.314617
450300,桂林市,110.299121,25.274215
450400,梧州市,111.297604,23.474803
450500,北海市,109.119254,21.473343
450600,防城港市,108.345478,21.614631
450700,钦州市,108.624175,21.967127
450800,贵港市,109.602146,23.0936
450900,玉林市,110.154393,22.63136
451000,百色市,106.616285,23.897742
451100,贺州市,111.552056,24.414141
451200,河池市,108.062105,24.695899
451300,来宾市,109.229772,23.733766
451400,崇左市,107.353926,22.404108
450100,南宁市,108.320004,22.82402
450102,兴宁区,108.320189,22.819511
450103,青秀区,108.346113,22.816614
450105,江南区,108.310478,22.799593
450107,西乡塘区,108.306903,22.832779
450108,良庆区,108.322102,22.75909
450109,邕宁区,108.484251,22.756598
450123,隆安县,107.688661,23.174763
450124,马山县,108.172903,23.711758
450125,上林县,108.603937,23.431769
450126,宾阳县,108.816735,23.216884
450127,横县,109.270987,22.68743
450200,柳州市,109.411703,24.314617
450202,城中区,109.411749,24.312324
450203,鱼峰区,109.415364,24.303848
450204,柳南区,109.395936,24.287013
450205,柳北区,109.406577,24.359145
450221,柳江县,109.334503,24.257512
450222,柳城县,109.245812,24.655121
450223,鹿寨县,109.740805,24.483405
450224,融安县,109.403621,25.214703
450225,融水苗族自治县,109.252744,25.068812
450226,三江侗族自治县,109.614846,25.78553
450300,桂林市,110.299121,25.274215
450302,秀峰区,110.292445,25.278544
450303,叠彩区,110.300783,25.301334
450304,象山区,110.284882,25.261986
450305,七星区,110.317577,25.254339
450311,雁山区,110.305667,25.077646
450312,临桂区,110.205487,25.246257
450321,阳朔县,110.494699,24.77534
450323,灵川县,110.325712,25.408541
450324,全州县,111.072989,25.929897
450325,兴安县,110.670783,25.609554
450326,永福县,109.989208,24.986692
450327,灌阳县,111.160248,25.489098
450328,龙胜各族自治县,110.009423,25.796428
450329,资源县,110.642587,26.0342
450330,平乐县,110.642821,24.632216
450331,荔浦县,110.400149,24.497786
450332,恭城瑶族自治县,110.82952,24.833612
450400,梧州市,111.297604,23.474803
450403,万秀区,111.315817,23.471318
450405,长洲区,111.275678,23.4777
450406,龙圩区,111.246035,23.40996
450421,苍梧县,111.544008,23.845097
450422,藤县,110.931826,23.373963
450423,蒙山县,110.5226,24.199829
450481,岑溪市,110.998114,22.918406
450500,北海市,109.119254,21.473343
450502,海城区,109.107529,21.468443
450503,银海区,109.118707,21.444909
450512,铁山港区,109.450573,21.5928
450521,合浦县,109.200695,21.663554
450600,防城港市,108.345478,21.614631
450602,港口区,108.346281,21.614406
450603,防城区,108.358426,21.764758
450621,上思县,107.982139,22.151423
450681,东兴市,107.97017,21.541172
450700,钦州市,108.624175,21.967127
450702,钦南区,108.626629,21.966808
450703,钦北区,108.44911,22.132761
450721,灵山县,109.293468,22.418041
450722,浦北县,109.556341,22.268335
450800,贵港市,109.602146,23.0936
450802,港北区,109.59481,23.107677
450803,港南区,109.604665,23.067516
450804,覃塘区,109.415697,23.132815
450821,平南县,110.397485,23.544546
450881,桂平市,110.074668,23.382473
450900,玉林市,110.154393,22.63136
450902,玉州区,110.154912,22.632132
450903,福绵区,110.054155,22.58163
450921,容县,110.552467,22.856435
450922,陆川县,110.264842,22.321054
450923,博白县,109.980004,22.271285
450924,兴业县,109.877768,22.74187
450981,北流市,110.348052,22.701648
451000,百色市,106.616285,23.897742
451002,右江区,106.615727,23.897675
451021,田阳县,106.904315,23.736079
451022,田东县,107.12426,23.600444
451023,平果县,107.580403,23.320479
451024,德保县,106.618164,23.321464
451026,那坡县,105.833553,23.400785
451027,凌云县,106.56487,24.345643
451028,乐业县,106.559638,24.782204
451029,田林县,106.235047,24.290262
451030,西林县,105.095025,24.492041
451031,隆林各族自治县,105.342363,24.774318
451100,贺州市,111.552056,24.414141
451102,八步区,111.551991,24.412446
451121,昭平县,110.810865,24.172958
451122,钟山县,111.303629,24.528566
451123,富川瑶族自治县,111.277228,24.81896
451200,河池市,108.062105,24.695899
451202,金城江区,108.062131,24.695625
451221,南丹县,107.546605,24.983192
451222,天峨县,107.174939,24.985964
451223,凤山县,107.044592,24.544561
451224,东兰县,107.373696,24.509367
451225,罗城仫佬族自治县,108.902453,24.779327
451226,环江毛南族自治县,108.258669,24.827628
451227,巴马瑶族自治县,107.253126,24.139538
451228,都安瑶族自治县,108.102761,23.934964
451229,大化瑶族自治县,107.9945,23.739596
451281,宜州市,108.653965,24.492193
451300,来宾市,109.229772,23.733766
451302,兴宾区,109.230541,23.732926
451321,忻城县,108.667361,24.064779
451322,象州县,109.684555,23.959824
451323,武宣县,109.66287,23.604162
451324,金秀瑶族自治县,110.188556,24.134941
451381,合山市,108.88858,23.81311
451400,崇左市,107.353926,22.404108
451402,江州区,107.354443,22.40469
451421,扶绥县,107.911533,22.635821
451422,宁明县,107.067616,22.131353
451423,龙州县,106.857502,22.343716
451424,大新县,107.200803,22.833369
451425,天等县,107.142441,23.082484
451481,凭祥市,106.759038,22.108882
460000,海南省,110.33119,20.031971
460100,海口市,110.33119,20.031971
460200,三亚市,109.508268,18.247872
460300,三沙市,112.34882,16.831039
469001,五指山市,109.516662,18.776921
469002,琼海市,110.466785,19.246011
469005,文昌市,110.753975,19.612986
469006,万宁市,110.388793,18.796216
469007,东方市,108.653789,19.10198
469021,定安县,110.349235,19.684966
469022,屯昌县,110.102773,19.362916
469023,澄迈县,110.007147,19.737095
469024,临高县,109.687697,19.908293
469025,白沙黎族自治县,109.452606,19.224584
469026,昌江黎族自治县,109.053351,19.260968
469027,乐东黎族自治县,109.175444,18.74758
469028,陵水黎族自治县,110.037218,18.505006
469029,保亭黎族苗族自治县,109.70245,18.636371
469030,琼中黎族苗族自治县,109.839996,19.03557
460100,海口市,110.33119,20.031971
460105,秀英区,110.282393,20.008145
460106,龙华区,110.330373,20.031026
460107,琼山区,110.354722,20.001051
460108,美兰区,110.356566,20.03074
460200,三亚市,109.508268,18.247872
460300,三沙市,112.34882,16.831039
460321,西沙群岛,111.792944,16.204546
460322,南沙群岛,116.749998,11.471888
460323,中沙群岛的岛礁及其海域,117.740071,15.112856
469001,五指山市,109.516662,18.776921
469002,琼海市,110.466785,19.246011
469005,文昌市,110.753975,19.612986
469006,万宁市,110.388793,18.796216
469007,东方市,108.653789,19.10198
469021,定安县,110.349235,19.684966
469022,屯昌县,110.102773,19.362916
469023,澄迈县,110.007147,19.737095
469024,临高县,109.687697,19.908293
469025,白沙黎族自治县,109.452606,19.224584
469026,昌江黎族自治县,109.053351,19.260968
469027,乐东黎族自治县,109.175444,18.74758
469028,陵水黎族自治县,110.037218,18.505006
469029,保亭黎族苗族自治县,109.70245,18.636371
469030,琼中黎族苗族自治县,109.839996,19.03557
500000,重庆市,106.504962,29.533155
500100,重庆市市辖区,106.504962,29.533155
500101,万州区,108.380246,30.807807
500102,涪陵区,107.394905,29.703652
500103,渝中区,106.56288,29.556742
500104,大渡口区,106.48613,29.481002
500105,江北区,106.532844,29.575352
500106,沙坪坝区,106.4542,29.541224
500107,九龙坡区,106.480989,29.523492
500108,南岸区,106.560813,29.523992
500109,北碚区,106.437868,29.82543
500110,綦江区,106.651417,29.028091
500111,大足区,105.715319,29.700498
500112,渝北区,106.512851,29.601451
500113,巴南区,106.519423,29.381919
500114,黔江区,108.782577,29.527548
500115,长寿区,107.074854,29.833671
500116,江津区,106.253156,29.283387
500117,合川区,106.265554,29.990993
500118,永川区,105.894714,29.348748
500119,南川区,107.098153,29.156646
500120,璧山区,106.231126,29.593581
500151,铜梁区,106.054948,29.839944
500200,重庆市郊县,108.170255,29.291965
500228,梁平县,107.800034,30.672168
500229,城口县,108.6649,31.946293
500230,丰都县,107.73248,29.866424
500231,垫江县,107.348692,30.330012
500232,武隆县,107.75655,29.32376
500233,忠县,108.037518,30.291537
500234,开县,108.413317,31.167735
500235,云阳县,108.697698,30.930529
500236,奉节县,109.465774,31.019967
500237,巫山县,109.878928,31.074843
500238,巫溪县,109.628912,31.3966
500240,石柱土家族自治县,108.112448,29.99853
500241,秀山土家族苗族自治县,108.996043,28.444772
500242,酉阳土家族苗族自治县,108.767201,28.839828
500243,彭水苗族土家族自治县,108.166551,29.293856
500100,重庆市市辖区,106.504962,29.533155
500101,万州区,108.380246,30.807807
500102,涪陵区,107.394905,29.703652
500103,渝中区,106.56288,29.556742
500104,大渡口区,106.48613,29.481002
500105,江北区,106.532844,29.575352
500106,沙坪坝区,106.4542,29.541224
500107,九龙坡区,106.480989,29.523492
500108,南岸区,106.560813,29.523992
500109,北碚区,106.437868,29.82543
500110,綦江区,106.651417,29.028091
500111,大足区,105.715319,29.700498
500112,渝北区,106.512851,29.601451
500113,巴南区,106.519423,29.381919
500114,黔江区,108.782577,29.527548
500115,长寿区,107.074854,29.833671
500116,江津区,106.253156,29.283387
500117,合川区,106.265554,29.990993
500118,永川区,105.894714,29.348748
500119,南川区,107.098153,29.156646
500120,璧山区,106.231126,29.593581
500151,铜梁区,106.054948,29.839944
500200,重庆市郊县,108.170255,29.291965
500228,梁平县,107.800034,30.672168
500229,城口县,108.6649,31.946293
500230,丰都县,107.73248,29.866424
500231,垫江县,107.348692,30.330012
500232,武隆县,107.75655,29.32376
500233,忠县,108.037518,30.291537
500234,开县,108.413317,31.167735
500235,云阳县,108.697698,30.930529
500236,奉节县,109.465774,31.019967
500237,巫山县,109.878928,31.074843
500238,巫溪县,109.628912,31.3966
500240,石柱土家族自治县,108.112448,29.99853
500241,秀山土家族苗族自治县,108.996043,28.444772
500242,酉阳土家族苗族自治县,108.767201,28.839828
500243,彭水苗族土家族自治县,108.166551,29.293856
510000,四川省,104.065735,30.659462
510100,成都市,104.065735,30.659462
510300,自贡市,104.773447,29.352765
510400,攀枝花市,101.716007,26.580446
510500,泸州市,105.443348,28.889138
510600,德阳市,104.398651,31.127991
510700,绵阳市,104.741722,31.46402
510800,广元市,105.829757,32.433668
510900,遂宁市,105.571331,30.513311
511000,内江市,105.066138,29.58708
511100,乐山市,103.761263,29.582024
511300,南充市,106.082974,30.795281
511400,眉山市,103.831788,30.048318
511500,宜宾市,104.630825,28.760189
511600,广安市,106.633369,30.456398
511700,达州市,107.502262,31.209484
511800,雅安市,103.001033,29.987722
511900,巴中市,106.753669,31.858809
512000,资阳市,104.641917,30.122211
513200,阿坝藏族羌族自治州,102.221374,31.899792
513300,甘孜藏族自治州,101.963815,30.050663
513400,凉山彝族自治州,102.258746,27.886762
510100,成都市,104.065735,30.659462
510104,锦江区,104.080989,30.657689
510105,青羊区,104.055731,30.667648
510106,金牛区,104.043487,30.692058
510107,武侯区,104.05167,30.630862
510108,成华区,104.103077,30.660275
510112,龙泉驿区,104.269181,30.56065
510113,青白江区,104.25494,30.883438
510114,新都区,104.16022,30.824223
510115,温江区,103.836776,30.697996
510121,金堂县,104.415604,30.858417
510122,双流县,103.922706,30.573243
510124,郫县,103.887842,30.808752
510129,大邑县,103.522397,30.586602
510131,蒲江县,103.511541,30.194359
510132,新津县,103.812449,30.414284
510181,都江堰市,103.627898,30.99114
510182,彭州市,103.941173,30.985161
510183,邛崃市,103.46143,30.413271
510184,崇州市,103.671049,30.631478
510300,自贡市,104.773447,29.352765
510302,自流井区,104.778188,29.343231
510303,贡井区,104.714372,29.345675
510304,大安区,104.783229,29.367136
510311,沿滩区,104.876417,29.272521
510321,荣县,104.423932,29.454851
510322,富顺县,104.984256,29.181282
510400,攀枝花市,101.716007,26.580446
510402,东区,101.715134,26.580887
510403,西区,101.637969,26.596776
510411,仁和区,101.737916,26.497185
510421,米易县,102.109877,26.887474
510422,盐边县,101.851848,26.677619
510500,泸州市,105.443348,28.889138
510502,江阳区,105.445131,28.882889
510503,纳溪区,105.37721,28.77631
510504,龙马潭区,105.435228,28.897572
510521,泸县,105.376335,29.151288
510522,合江县,105.834098,28.810325
510524,叙永县,105.437775,28.167919
510525,古蔺县,105.813359,28.03948
510600,德阳市,104.398651,31.127991
510603,旌阳区,104.389648,31.130428
510623,中江县,104.677831,31.03681
510626,罗江县,104.507126,31.303281
510681,广汉市,104.281903,30.97715
510682,什邡市,104.173653,31.126881
510683,绵竹市,104.200162,31.343084
510700,绵阳市,104.741722,31.46402
510703,涪城区,104.740971,31.463557
510704,游仙区,104.770006,31.484772
510722,三台县,105.090316,31.090909
510723,盐亭县,105.391991,31.22318
510724,安县,104.560341,31.53894
510725,梓潼县,105.16353,31.635225
510726,北川羌族自治县,104.468069,31.615863
510727,平武县,104.530555,32.407588
510781,江油市,104.744431,31.776386
510800,广元市,105.829757,32.433668
510802,利州区,105.826194,32.432276
510811,昭化区,105.964121,32.322788
510812,朝天区,105.88917,32.642632
510821,旺苍县,106.290426,32.22833
510822,青川县,105.238847,32.585655
510823,剑阁县,105.527035,32.286517
510824,苍溪县,105.939706,31.732251
510900,遂宁市,105.571331,30.513311
510903,船山区,105.582215,30.502647
510904,安居区,105.459383,30.346121
510921,蓬溪县,105.713699,30.774883
510922,射洪县,105.381849,30.868752
510923,大英县,105.252187,30.581571
511000,内江市,105.066138,29.58708
511002,市中区,105.065467,29.585265
511011,东兴区,105.067203,29.600107
511024,威远县,104.668327,29.52686
511025,资中县,104.852463,29.775295
511028,隆昌县,105.288074,29.338162
511100,乐山市,103.761263,29.582024
511102,市中区,103.75539,29.588327
511111,沙湾区,103.549961,29.416536
511112,五通桥区,103.816837,29.406186
511113,金口河区,103.077831,29.24602
511123,犍为县,103.944266,29.209782
511124,井研县,104.06885,29.651645
511126,夹江县,103.578862,29.741019
511129,沐川县,103.90211,28.956338
511132,峨边彝族自治县,103.262148,29.230271
511133,马边彝族自治县,103.546851,28.838933
511181,峨眉山市,103.492488,29.597478
511300,南充市,106.082974,30.795281
511302,顺庆区,106.084091,30.795572
511303,高坪区,106.108996,30.781809
511304,嘉陵区,106.067027,30.762976
511321,南部县,106.061138,31.349407
511322,营山县,106.564893,31.075907
511323,蓬安县,106.413488,31.027978
511324,仪陇县,106.297083,31.271261
511325,西充县,105.893021,30.994616
511381,阆中市,105.975266,31.580466
511400,眉山市,103.831788,30.048318
511402,东坡区,103.831553,30.048128
511403,彭山区,103.8701,30.192298
511421,仁寿县,104.147646,29.996721
511423,洪雅县,103.375006,29.904867
511424,丹棱县,103.518333,30.012751
511425,青神县,103.846131,29.831469
511500,宜宾市,104.630825,28.760189
511502,翠屏区,104.630231,28.760179
511503,南溪区,104.981133,28.839806
511521,宜宾县,104.541489,28.695678
511523,江安县,105.068697,28.728102
511524,长宁县,104.921116,28.577271
511525,高县,104.519187,28.435676
511526,珙县,104.712268,28.449041
511527,筠连县,104.507848,28.162017
511528,兴文县,105.236549,28.302988
511529,屏山县,104.162617,28.64237
511600,广安市,106.633369,30.456398
511602,广安区,106.632907,30.456462
511603,前锋区,106.893277,30.4963
511621,岳池县,106.444451,30.533538
511622,武胜县,106.292473,30.344291
511623,邻水县,106.934968,30.334323
511681,华蓥市,106.777882,30.380574
511700,达州市,107.502262,31.209484
511702,通川区,107.501062,31.213522
511703,达川区,107.507926,31.199062
511722,宣汉县,107.722254,31.355025
511723,开江县,107.864135,31.085537
511724,大竹县,107.20742,30.736289
511725,渠县,106.970746,30.836348
511781,万源市,108.037548,32.06777
511800,雅安市,103.001033,29.987722
511802,雨城区,103.003398,29.981831
511803,名山区,103.112214,30.084718
511822,荥经县,102.844674,29.795529
511823,汉源县,102.677145,29.349915
511824,石棉县,102.35962,29.234063
511825,天全县,102.763462,30.059955
511826,芦山县,102.924016,30.152907
511827,宝兴县,102.813377,30.369026
511900,巴中市,106.753669,31.858809
511902,巴州区,106.753671,31.858366
511903,恩阳区,106.486515,31.816336
511921,通江县,107.247621,31.91212
511922,南江县,106.843418,32.353164
511923,平昌县,107.101937,31.562814
512000,资阳市,104.641917,30.122211
512002,雁江区,104.642338,30.121686
512021,安岳县,105.336764,30.099206
512022,乐至县,105.031142,30.275619
512081,简阳市,104.550339,30.390666
513200,阿坝藏族羌族自治州,102.221374,31.899792
513221,汶川县,103.580675,31.47463
513222,理县,103.165486,31.436764
513223,茂县,103.850684,31.680407
513224,松潘县,103.599177,32.63838
513225,九寨沟县,104.236344,33.262097
513226,金川县,102.064647,31.476356
513227,小金县,102.363193,30.999016
513228,黑水县,102.990805,32.061721
513229,马尔康县,102.221187,31.899761
513230,壤塘县,100.979136,32.264887
513231,阿坝县,101.700985,32.904223
513232,若尔盖县,102.963726,33.575934
513233,红原县,102.544906,32.793902
513300,甘孜藏族自治州,101.963815,30.050663
513322,泸定县,102.233225,29.912482
513323,丹巴县,101.886125,30.877083
513324,九龙县,101.506942,29.001975
513325,雅江县,101.015735,30.03225
513326,道孚县,101.123327,30.978767
513327,炉霍县,100.679495,31.392674
513328,甘孜县,99.991753,31.61975
513329,新龙县,100.312094,30.93896
513330,德格县,98.57999,31.806729
513331,白玉县,98.824343,31.208805
513332,石渠县,98.100887,32.975302
513333,色达县,100.331657,32.268777
513334,理塘县,100.269862,29.991807
513335,巴塘县,99.109037,30.005723
513336,乡城县,99.799943,28.930855
513337,稻城县,100.296689,29.037544
513338,得荣县,99.288036,28.71134
513400,凉山彝族自治州,102.258746,27.886762
513401,西昌市,102.258758,27.885786
513422,木里藏族自治县,101.280184,27.926859
513423,盐源县,101.508909,27.423415
513424,德昌县,102.178845,27.403827
513425,会理县,102.249548,26.658702
513426,会东县,102.578985,26.630713
513427,宁南县,102.757374,27.065205
513428,普格县,102.541082,27.376828
513429,布拖县,102.808801,27.709062
513430,金阳县,103.248704,27.695916
513431,昭觉县,102.843991,28.010554
513432,喜德县,102.412342,28.305486
513433,冕宁县,102.170046,28.550844
513434,越西县,102.508875,28.639632
513435,甘洛县,102.775924,28.977094
513436,美姑县,103.132007,28.327946
513437,雷波县,103.571584,28.262946
520000,贵州省,106.713478,26.578343
520100,贵阳市,106.713478,26.578343
520200,六盘水市,104.846743,26.584643
520300,遵义市,106.937265,27.706626
520400,安顺市,105.932188,26.245544
520500,毕节市,105.28501,27.301693
520600,铜仁市,109.191555,27.718346
522300,黔西南布依族苗族自治州,104.897971,25.08812
522600,黔东南苗族侗族自治州,107.977488,26.583352
522700,黔南布依族苗族自治州,107.517156,26.258219
520100,贵阳市,106.713478,26.578343
520102,南明区,106.715963,26.573743
520103,云岩区,106.713397,26.58301
520111,花溪区,106.670791,26.410464
520112,乌当区,106.762123,26.630928
520113,白云区,106.633037,26.676849
520115,观山湖区,106.626323,26.646358
520121,开阳县,106.969438,27.056793
520122,息烽县,106.737693,27.092665
520123,修文县,106.599218,26.840672
520181,清镇市,106.470278,26.551289
520200,六盘水市,104.846743,26.584643
520201,钟山区,104.846244,26.584805
520203,六枝特区,105.474235,26.210662
520221,水城县,104.95685,26.540478
520222,盘县,104.468367,25.706966
520300,遵义市,106.937265,27.706626
520302,红花岗区,106.943784,27.694395
520303,汇川区,106.937265,27.706626
520321,遵义县,106.831668,27.535288
520322,桐梓县,106.826591,28.131559
520323,绥阳县,107.191024,27.951342
520324,正安县,107.441872,28.550337
520325,道真仡佬族苗族自治县,107.605342,28.880088
520326,务川仡佬族苗族自治县,107.887857,28.521567
520327,凤冈县,107.722021,27.960858
520328,湄潭县,107.485723,27.765839
520329,余庆县,107.892566,27.221552
520330,习水县,106.200954,28.327826
520381,赤水市,105.698116,28.587057
520382,仁怀市,106.412476,27.803377
520400,安顺市,105.932188,26.245544
520402,西秀区,105.946169,26.248323
520403,平坝区,106.259942,26.40608
520422,普定县,105.745609,26.305794
520423,镇宁布依族苗族自治县,105.768656,26.056096
520424,关岭布依族苗族自治县,105.618454,25.944248
520425,紫云苗族布依族自治县,106.084515,25.751567
520500,毕节市,105.28501,27.301693
520502,七星关区,105.284852,27.302085
520521,大方县,105.609254,27.143521
520522,黔西县,106.038299,27.024923
520523,金沙县,106.222103,27.459693
520524,织金县,105.768997,26.668497
520525,纳雍县,105.375322,26.769875
520526,威宁彝族回族苗族自治县,104.286523,26.859099
520527,赫章县,104.726438,27.119243
520600,铜仁市,109.191555,27.718346
520602,碧江区,109.192117,27.718745
520603,万山区,109.21199,27.51903
520621,江口县,108.848427,27.691904
520622,玉屏侗族自治县,108.917882,27.238024
520623,石阡县,108.229854,27.519386
520624,思南县,108.255827,27.941331
520625,印江土家族苗族自治县,108.405517,27.997976
520626,德江县,108.117317,28.26094
520627,沿河土家族自治县,108.495746,28.560487
520628,松桃苗族自治县,109.202627,28.165419
522300,黔西南布依族苗族自治州,104.897971,25.08812
522301,兴义市,104.897982,25.088599
522322,兴仁县,105.192778,25.431378
522323,普安县,104.955347,25.786404
522324,晴隆县,105.218773,25.832881
522325,贞丰县,105.650133,25.385752
522326,望谟县,106.091563,25.166667
522327,册亨县,105.81241,24.983338
522328,安龙县,105.471498,25.108959
522600,黔东南苗族侗族自治州,107.977488,26.583352
522601,凯里市,107.977541,26.582964
522622,黄平县,107.901337,26.896973
522623,施秉县,108.12678,27.034657
522624,三穗县,108.681121,26.959884
522625,镇远县,108.423656,27.050233
522626,岑巩县,108.816459,27.173244
522627,天柱县,109.212798,26.909684
522628,锦屏县,109.20252,26.680625
522629,剑河县,108.440499,26.727349
522630,台江县,108.314637,26.669138
522631,黎平县,109.136504,26.230636
522632,榕江县,108.521026,25.931085
522633,从江县,108.912648,25.747058
522634,雷山县,108.079613,26.381027
522635,麻江县,107.593172,26.494803
522636,丹寨县,107.794808,26.199497
522700,黔南布依族苗族自治州,107.517156,26.258219
522701,都匀市,107.517021,26.258205
522702,福泉市,107.513508,26.702508
522722,荔波县,107.8838,25.412239
522723,贵定县,107.233588,26.580807
522725,瓮安县,107.478417,27.066339
522726,独山县,107.542757,25.826283
522727,平塘县,107.32405,25.831803
522728,罗甸县,106.750006,25.429894
522729,长顺县,106.447376,26.022116
522730,龙里县,106.977733,26.448809
522731,惠水县,106.657848,26.128637
522732,三都水族自治县,107.87747,25.985183
530000,云南省,102.712251,25.040609
530100,昆明市,102.712251,25.040609
530300,曲靖市,103.797851,25.501557
530400,玉溪市,102.543907,24.350461
530500,保山市,99.167133,25.111802
530600,昭通市,103.717216,27.336999
530700,丽江市,100.233026,26.872108
530800,普洱市,100.972344,22.777321
530900,临沧市,100.08697,23.886567
532300,楚雄彝族自治州,101.546046,25.041988
532500,红河哈尼族彝族自治州,103.384182,23.366775
532600,文山壮族苗族自治州,104.24401,23.36951
532800,西双版纳傣族自治州,100.797941,22.001724
532900,大理白族自治州,100.225668,25.589449
533100,德宏傣族景颇族自治州,98.578363,24.436694
533300,怒江傈僳族自治州,98.854304,25.850949
533400,迪庆藏族自治州,99.706463,27.826853
530100,昆明市,102.712251,25.040609
530102,五华区,102.704412,25.042165
530103,盘龙区,102.729044,25.070239
530111,官渡区,102.723437,25.021211
530112,西山区,102.705904,25.02436
530113,东川区,103.182,26.08349
530114,呈贡区,102.801382,24.889275
530122,晋宁县,102.594987,24.666944
530124,富民县,102.497888,25.219667
530125,宜良县,103.145989,24.918215
530126,石林彝族自治县,103.271962,24.754545
530127,嵩明县,103.038777,25.335087
530128,禄劝彝族苗族自治县,102.46905,25.556533
530129,寻甸回族彝族自治县,103.257588,25.559474
530181,安宁市,102.485544,24.921785
530300,曲靖市,103.797851,25.501557
530302,麒麟区,103.798054,25.501269
530321,马龙县,103.578755,25.429451
530322,陆良县,103.655233,25.022878
530323,师宗县,103.993808,24.825681
530324,罗平县,104.309263,24.885708
530325,富源县,104.25692,25.67064
530326,会泽县,103.300041,26.412861
530328,沾益县,103.819262,25.600878
530381,宣威市,104.09554,26.227777
530400,玉溪市,102.543907,24.350461
530402,红塔区,102.543468,24.350753
530421,江川县,102.749839,24.291006
530422,澄江县,102.916652,24.669679
530423,通海县,102.760039,24.112205
530424,华宁县,102.928982,24.189807
530425,易门县,102.16211,24.669598
530426,峨山彝族自治县,102.404358,24.173256
530427,新平彝族傣族自治县,101.990903,24.0664
530428,元江哈尼族彝族傣族自治县,101.999658,23.597618
530500,保山市,99.167133,25.111802
530502,隆阳区,99.165825,25.112144
530521,施甸县,99.183758,24.730847
530523,龙陵县,98.693567,24.591912
530524,昌宁县,99.612344,24.823662
530600,昭通市,103.717216,27.336999
530602,昭阳区,103.717267,27.336636
530621,鲁甸县,103.549333,27.191637
530622,巧家县,102.929284,26.9117
530623,盐津县,104.23506,28.106923
530624,大关县,103.891608,27.747114
530625,永善县,103.63732,28.231526
530626,绥江县,103.961095,28.599953
530627,镇雄县,104.873055,27.436267
530628,彝良县,104.048492,27.627425
530629,威信县,105.04869,27.843381
530630,水富县,104.415376,28.629688
530700,丽江市,100.233026,26.872108
530702,古城区,100.234412,26.872229
530721,玉龙纳西族自治县,100.238312,26.830593
530722,永胜县,100.750901,26.685623
530723,华坪县,101.267796,26.628834
530724,宁蒗彝族自治县,100.852427,27.281109
530800,普洱市,100.972344,22.777321
530802,思茅区,100.973227,22.776595
530821,宁洱哈尼族彝族自治县,101.04524,23.062507
530822,墨江哈尼族自治县,101.687606,23.428165
530823,景东彝族自治县,100.840011,24.448523
530824,景谷傣族彝族自治县,100.701425,23.500278
530825,镇沅彝族哈尼族拉祜族自治县,101.108512,24.005712
530826,江城哈尼族彝族自治县,101.859144,22.58336
530827,孟连傣族拉祜族佤族自治县,99.585406,22.325924
530828,澜沧拉祜族自治县,99.931201,22.553083
530829,西盟佤族自治县,99.594372,22.644423
530900,临沧市,100.08697,23.886567
530902,临翔区,100.086486,23.886562
530921,凤庆县,99.91871,24.592738
530922,云县,100.125637,24.439026
530923,永德县,99.253679,24.028159
530924,镇康县,98.82743,23.761415
530925,双江拉祜族佤族布朗族傣族自治县,99.824419,23.477476
530926,耿马傣族佤族自治县,99.402495,23.534579
530927,沧源佤族自治县,99.2474,23.146887
532300,楚雄彝族自治州,101.546046,25.041988
532301,楚雄市,101.546145,25.040912
532322,双柏县,101.63824,24.685094
532323,牟定县,101.543044,25.312111
532324,南华县,101.274991,25.192408
532325,姚安县,101.238399,25.505403
532326,大姚县,101.323602,25.722348
532327,永仁县,101.671175,26.056316
532328,元谋县,101.870837,25.703313
532329,武定县,102.406785,25.5301
532331,禄丰县,102.075694,25.14327
532500,红河哈尼族彝族自治州,103.384182,23.366775
532501,个旧市,103.154752,23.360383
532502,开远市,103.258679,23.713832
532503,蒙自市,103.385005,23.366843
532504,弥勒市,103.436988,24.40837
532523,屏边苗族自治县,103.687229,22.987013
532524,建水县,102.820493,23.618387
532525,石屏县,102.484469,23.712569
532527,泸西县,103.759622,24.532368
532528,元阳县,102.837056,23.219773
532529,红河县,102.42121,23.369191
532530,金平苗族瑶族傣族自治县,103.228359,22.779982
532531,绿春县,102.39286,22.99352
532532,河口瑶族自治县,103.961593,22.507563
532600,文山壮族苗族自治州,104.24401,23.36951
532601,文山市,104.244277,23.369216
532622,砚山县,104.343989,23.612301
532623,西畴县,104.675711,23.437439
532624,麻栗坡县,104.701899,23.124202
532625,马关县,104.398619,23.011723
532626,丘北县,104.194366,24.040982
532627,广南县,105.056684,24.050272
532628,富宁县,105.62856,23.626494
532800,西双版纳傣族自治州,100.797941,22.001724
532801,景洪市,100.797947,22.002087
532822,勐海县,100.448288,21.955866
532823,勐腊县,101.567051,21.479449
532900,大理白族自治州,100.225668,25.589449
532901,大理市,100.241369,25.593067
532922,漾濞彝族自治县,99.95797,25.669543
532923,祥云县,100.554025,25.477072
532924,宾川县,100.578957,25.825904
532925,弥渡县,100.490669,25.342594
532926,南涧彝族自治县,100.518683,25.041279
532927,巍山彝族回族自治县,100.30793,25.230909
532928,永平县,99.533536,25.461281
532929,云龙县,99.369402,25.884955
532930,洱源县,99.951708,26.111184
532931,剑川县,99.905887,26.530066
532932,鹤庆县,100.173375,26.55839
533100,德宏傣族景颇族自治州,98.578363,24.436694
533102,瑞丽市,97.855883,24.010734
533103,芒市,98.577608,24.436699
533122,梁河县,98.298196,24.80742
533123,盈江县,97.93393,24.709541
